{
"type": "FeatureCollection",
"name": "urgent_care_points_2022",
"crs": { "type": "name", "properties": { "name": "urn:ogc:def:crs:OGC:1.3:CRS84" } },
"features": [
{ "type": "Feature", "properties": { "name": "MinuteClinic at CVS", "place_id": "ChIJQ6qlRbNot4kRg-PO5SJ5TIY", "rating": 2.8 }, "geometry": { "type": "Point", "coordinates": [ -76.6576503, 38.3054032 ] } },
{ "type": "Feature", "properties": { "name": "MedStar Health: Urgent Care at California", "place_id": "ChIJreaLPSVjt4kRhlknTDDTuI4", "rating": 4.0 }, "geometry": { "type": "Point", "coordinates": [ -76.522461, 38.30379 ] } },
{ "type": "Feature", "properties": { "name": "MedExpress Urgent Care", "place_id": "ChIJabgT-NFjt4kRmgwywVX-rPE", "rating": 2.9 }, "geometry": { "type": "Point", "coordinates": [ -76.5083958, 38.298679 ] } },
{ "type": "Feature", "properties": { "name": "Patriot Urgent Care - Solomons", "place_id": "ChIJKeqMqYVit4kRmyauRhWwWrQ", "rating": 4.8 }, "geometry": { "type": "Point", "coordinates": [ -76.4651316, 38.3329843 ] } },
{ "type": "Feature", "properties": { "name": "Centercare Urgent Care & Family Practice -Dahlgren.", "place_id": "ChIJLebbQjwZt4kRFIr311rPqBg", "rating": 3.5 }, "geometry": { "type": "Point", "coordinates": [ -77.0758819, 38.3401412 ] } },
{ "type": "Feature", "properties": { "name": "MedStar Health: Urgent Care at Charlotte Hall", "place_id": "ChIJSaeAMHt0t4kRH6p6r8d0cNw", "rating": 3.6 }, "geometry": { "type": "Point", "coordinates": [ -76.7721543, 38.4946028 ] } },
{ "type": "Feature", "properties": { "name": "Premier Health Express Urgent Care-Lusby", "place_id": "ChIJt3PB2TnXuYkRpb8363Z7W0o", "rating": 4.8 }, "geometry": { "type": "Point", "coordinates": [ -76.4354748, 38.3746961 ] } },
{ "type": "Feature", "properties": { "name": "MedStar Health: Urgent Care at La Plata", "place_id": "ChIJL3K5sHoJt4kRzX52ITIDP-s", "rating": 4.2 }, "geometry": { "type": "Point", "coordinates": [ -76.9754396, 38.5293306 ] } },
{ "type": "Feature", "properties": { "name": "MedExpress Urgent Care", "place_id": "ChIJd1XljdWgt4kRRKplWAi9c20", "rating": 3.1 }, "geometry": { "type": "Point", "coordinates": [ -76.9142193, 38.6242825 ] } },
{ "type": "Feature", "properties": { "name": "MedStar Health: Urgent Care in Waldorf at Festival Way", "place_id": "ChIJB3lBsiqht4kRSMJ5WoCfkT0", "rating": 4.0 }, "geometry": { "type": "Point", "coordinates": [ -76.9173541, 38.6291452 ] } },
{ "type": "Feature", "properties": { "name": "Centercare Urgent Care & Family Practice-Kings Hwy", "place_id": "ChIJv6jyavXftokRt2ySj1_skXw", "rating": 3.5 }, "geometry": { "type": "Point", "coordinates": [ -77.205448, 38.277028 ] } },
{ "type": "Feature", "properties": { "name": "Riverside Urgent Care", "place_id": "ChIJZTGg7B7LsIkRryTxZfWHKKE", "rating": 2.5 }, "geometry": { "type": "Point", "coordinates": [ -76.8753983, 37.8981902 ] } },
{ "type": "Feature", "properties": { "name": "Patriot Urgent Care - Prince Frederick", "place_id": "ChIJx73sAoqCt4kRg9zIIuMsHB8", "rating": 4.8 }, "geometry": { "type": "Point", "coordinates": [ -76.5978598, 38.5615492 ] } },
{ "type": "Feature", "properties": { "name": "Breton Super Care", "place_id": "ChIJHby_lyBit4kRC1Yu12Sw0oA", "rating": 3.0 }, "geometry": { "type": "Point", "coordinates": [ -76.4799723, 38.2859534 ] } },
{ "type": "Feature", "properties": { "name": "MedStar Health: Urgent Care in Waldorf at Shoppers World", "place_id": "ChIJIWHXY9Ogt4kR_ilNlUg4r_I", "rating": 4.4 }, "geometry": { "type": "Point", "coordinates": [ -76.9163893, 38.6197838 ] } },
{ "type": "Feature", "properties": { "name": "Faithfirst Health Clinic and Urgent Care LLC", "place_id": "ChIJtUCaqv25t4kR0dS1VluCAMQ", "rating": 3.7 }, "geometry": { "type": "Point", "coordinates": [ -76.9764124, 38.5267271 ] } },
{ "type": "Feature", "properties": { "name": "Urgent Care and Walk-In Clinic in Alexandria, VA", "place_id": "ChIJz_j3KhSut4kRECfsUjqib0M", "rating": 1.8 }, "geometry": { "type": "Point", "coordinates": [ -77.0827103, 38.7519171 ] } },
{ "type": "Feature", "properties": { "name": "Express Healthcare - Waldorf", "place_id": "ChIJ8QALsCiht4kRsvmW8Op0P-U", "rating": 3.3 }, "geometry": { "type": "Point", "coordinates": [ -76.9074827, 38.6286551 ] } },
{ "type": "Feature", "properties": { "name": "Cedar Hill Urgent Care", "place_id": "ChIJyxKuQCe5t4kR2bvgDnKX3EI", "rating": 3.8 }, "geometry": { "type": "Point", "coordinates": [ -76.9906337, 38.8633117 ] } },
{ "type": "Feature", "properties": { "name": "AllCare Family Medicine and Urgent Care of Lorton", "place_id": "ChIJOeAVMlpTtokRdiMScjiN_Pc", "rating": 4.2 }, "geometry": { "type": "Point", "coordinates": [ -77.2089456, 38.704989 ] } },
{ "type": "Feature", "properties": { "name": "Providence Urgent Care Center", "place_id": "ChIJxwm5jufHt4kR1LbEoYXqAO4", "rating": 3.3 }, "geometry": { "type": "Point", "coordinates": [ -76.9906294, 38.9439737 ] } },
{ "type": "Feature", "properties": { "name": "Access Now Urgent Care", "place_id": "ChIJb6jTNwPPt4kR94WQjDlgfUU", "rating": 4.8 }, "geometry": { "type": "Point", "coordinates": [ -77.05216, 39.041993 ] } },
{ "type": "Feature", "properties": { "name": "Concentra Urgent Care", "place_id": "ChIJs9uECXjEt4kRIb6IbjLAj-g", "rating": 4.3 }, "geometry": { "type": "Point", "coordinates": [ -76.9185469, 39.0281766 ] } },
{ "type": "Feature", "properties": { "name": "Millennium Medical Care", "place_id": "ChIJEaE5th1PtokR5KR9kbuRGi4", "rating": 4.5 }, "geometry": { "type": "Point", "coordinates": [ -77.3343269, 38.8501967 ] } },
{ "type": "Feature", "properties": { "name": "East Run Medical Center", "place_id": "ChIJbYJXX7Jht4kRDl0xfo0QRPU", "rating": 1.0 }, "geometry": { "type": "Point", "coordinates": [ -76.4892456, 38.2477877 ] } },
{ "type": "Feature", "properties": { "name": "Concentra Urgent Care", "place_id": "ChIJabbBOgjht4kRxR4QOZrJMtw", "rating": 4.3 }, "geometry": { "type": "Point", "coordinates": [ -76.7647147, 39.1813021 ] } },
{ "type": "Feature", "properties": { "name": "Your Doc's In", "place_id": "ChIJXf8yp19AuIkR_OcWpZFkjBM", "rating": 4.4 }, "geometry": { "type": "Point", "coordinates": [ -76.0599073, 38.7733113 ] } },
{ "type": "Feature", "properties": { "name": "Your Doc's In", "place_id": "ChIJ7-AyWosCuYkRt8mmwWQ0xN4", "rating": 4.6 }, "geometry": { "type": "Point", "coordinates": [ -75.56768, 38.4053617 ] } },
{ "type": "Feature", "properties": { "name": "Newark Urgent Care", "place_id": "ChIJGRbsS6arx4kRaWQUKirYjm0", "rating": 2.8 }, "geometry": { "type": "Point", "coordinates": [ -75.7400342, 39.6842151 ] } },
{ "type": "Feature", "properties": { "name": "Beachgate Family Medical Center", "place_id": "ChIJJxK5mWQ9t4kRHmxGEYNFSb0", "rating": 4.3 }, "geometry": { "type": "Point", "coordinates": [ -76.9775071, 38.253953 ] } },
{ "type": "Feature", "properties": { "name": "Wildewood Medical Care", "place_id": "ChIJSVPbhutjt4kRrHKFinkaBUk", "rating": 3.7 }, "geometry": { "type": "Point", "coordinates": [ -76.5356367, 38.3106342 ] } },
{ "type": "Feature", "properties": { "name": "Major Medical, LLC", "place_id": "ChIJgwdcjLvIt4kRRAECSVKZgXs", "rating": 3.5 }, "geometry": { "type": "Point", "coordinates": [ -77.0321248, 38.9989909 ] } },
{ "type": "Feature", "properties": { "name": "Your Doc's In", "place_id": "ChIJ493VlYlyuYkR1ystGx1hbfY", "rating": 4.6 }, "geometry": { "type": "Point", "coordinates": [ -75.543765, 38.0496731 ] } },
{ "type": "Feature", "properties": { "name": "Colonial Beach Health & Wellness", "place_id": "ChIJGwP-w94Xt4kRt5JFQUWMGMk", "rating": 4.2 }, "geometry": { "type": "Point", "coordinates": [ -76.9768525, 38.254353 ] } },
{ "type": "Feature", "properties": { "name": "Cooper Urgent Care Center in Audubon", "place_id": "ChIJC64JTKHOxokReQLmT7v29aY", "rating": 4.8 }, "geometry": { "type": "Point", "coordinates": [ -75.0656745, 39.8908139 ] } },
{ "type": "Feature", "properties": { "name": "Cooper Urgent Care", "place_id": "ChIJ1THYOHe1xokRu7EnePXNXR0", "rating": 4.8 }, "geometry": { "type": "Point", "coordinates": [ -75.0058628, 39.9909921 ] } },
{ "type": "Feature", "properties": { "name": "myDoc Urgent Care", "place_id": "ChIJ3WEbGFfGxokRTxb09i0ZZqw", "rating": 4.0 }, "geometry": { "type": "Point", "coordinates": [ -75.1974954, 39.9554821 ] } },
{ "type": "Feature", "properties": { "name": "First Colonial Family Practice and Urgent Care Center", "place_id": "ChIJp-C0hvfruokR-uhxSG4n5e0", "rating": 3.8 }, "geometry": { "type": "Point", "coordinates": [ -76.0290343, 36.8668123 ] } },
{ "type": "Feature", "properties": { "name": "Concentra Urgent Care", "place_id": "ChIJsWvXOWrExokRrg-Y9j7kKXg", "rating": 3.4 }, "geometry": { "type": "Point", "coordinates": [ -75.2265394, 39.9033281 ] } },
{ "type": "Feature", "properties": { "name": "Patient First Primary and Urgent Care - Wyomissing", "place_id": "ChIJ_6vkH7F2xokRcVCch8GA4GE", "rating": 4.2 }, "geometry": { "type": "Point", "coordinates": [ -75.9805562, 40.3523756 ] } },
{ "type": "Feature", "properties": { "name": "Providence Health System", "place_id": "ChIJHQTYhMHHt4kR0B-5oDcsi0I", "rating": 2.8 }, "geometry": { "type": "Point", "coordinates": [ -76.9914877, 38.9440985 ] } },
{ "type": "Feature", "properties": { "name": "Concentra Urgent Care", "place_id": "ChIJdUSKE4W2xokRUX6E9n6ykXA", "rating": 3.7 }, "geometry": { "type": "Point", "coordinates": [ -75.0714442, 40.0358304 ] } },
{ "type": "Feature", "properties": { "name": "Centers Urgent Care of Middle Village", "place_id": "ChIJLyx3qJpewokRf-qjupndC-Y", "rating": 4.5 }, "geometry": { "type": "Point", "coordinates": [ -73.901525, 40.713865 ] } },
{ "type": "Feature", "properties": { "name": "Westmoreland Medical Center", "place_id": "ChIJ9dcmCypGt4kRANrbcXU4XQ4", "rating": 4.5 }, "geometry": { "type": "Point", "coordinates": [ -76.7820816, 38.0780258 ] } },
{ "type": "Feature", "properties": { "name": "UNC Urgent Care at The Family Medicine Center", "place_id": "ChIJZb8tS4zCrIkRk-M2accwB2k", "rating": 2.9 }, "geometry": { "type": "Point", "coordinates": [ -79.0378396, 35.8986954 ] } },
{ "type": "Feature", "properties": { "name": "Summit Medical Group - Berkeley Heights Urgent Care Center", "place_id": "ChIJg2r_IqK6w4kRC_SPp8jwuHY", "rating": 2.5 }, "geometry": { "type": "Point", "coordinates": [ -74.4121114, 40.6779613 ] } },
{ "type": "Feature", "properties": { "name": "Bethany God, MD", "place_id": "ChIJFco55S5ht4kRbKMl11RbJoA", "rating": 4.0 }, "geometry": { "type": "Point", "coordinates": [ -76.4896427, 38.2481985 ] } },
{ "type": "Feature", "properties": { "name": "Summit Health Urgent Care", "place_id": "ChIJoZfJAwumw4kRCxLF0RgFz-4", "rating": 3.1 }, "geometry": { "type": "Point", "coordinates": [ -74.4271898, 40.7811751 ] } },
{ "type": "Feature", "properties": { "name": "Mount Sinai-Union Square, Urgent Care", "place_id": "ChIJuzKhxphZwokR2Ueg1yKBQFo", "rating": 3.1 }, "geometry": { "type": "Point", "coordinates": [ -73.9896073, 40.7348085 ] } },
{ "type": "Feature", "properties": { "name": "Mount Sinai Doctors-Urgent Care, Brooklyn Heights", "place_id": "ChIJ60t0rUlawokR_Ei1OtEqQds", "rating": 3.6 }, "geometry": { "type": "Point", "coordinates": [ -73.9912917, 40.6950518 ] } },
{ "type": "Feature", "properties": { "name": "Englewood Health Urgent Care at Englewood", "place_id": "ChIJQSslurzxwokRtkR2YypbAhw", "rating": 4.1 }, "geometry": { "type": "Point", "coordinates": [ -73.9751589, 40.8958016 ] } },
{ "type": "Feature", "properties": { "name": "Atrium Health Wake Forest Baptist | Convenience Care - Premier", "place_id": "ChIJeRUeLW0FU4gREkiwbA8ANq8", "rating": 2.1 }, "geometry": { "type": "Point", "coordinates": [ -79.949705, 36.0354184 ] } },
{ "type": "Feature", "properties": { "name": "Englewood Health Urgent Care at Cresskill", "place_id": "ChIJ33v7Ag_xwokRyTEBuzs6g3U", "rating": 3.6 }, "geometry": { "type": "Point", "coordinates": [ -73.9609765, 40.9416196 ] } },
{ "type": "Feature", "properties": { "name": "Mount Sinai Doctors-Urgent Care & Multispecialty, Upper West Side", "place_id": "ChIJoWK1wpxYwokRUSMfTYuJXak", "rating": 3.2 }, "geometry": { "type": "Point", "coordinates": [ -73.9701614, 40.7896225 ] } },
{ "type": "Feature", "properties": { "name": "Immediate Care Center", "place_id": "ChIJ7zpf7r-hwokRJCg_6sxTJaM", "rating": 1.8 }, "geometry": { "type": "Point", "coordinates": [ -73.5342601, 41.064744 ] } },
{ "type": "Feature", "properties": { "name": "Atrium Health Wake Forest Baptist | Urgent Care - Clemmons", "place_id": "ChIJo8yzI4u5U4gR33-IubL631k", "rating": 3.9 }, "geometry": { "type": "Point", "coordinates": [ -80.3864263, 36.0411885 ] } },
{ "type": "Feature", "properties": { "name": "CAMC Urgent Care Center", "place_id": "ChIJcWTux5vLSIgR9LjNjHMIvnk", "rating": 3.6 }, "geometry": { "type": "Point", "coordinates": [ -81.7938229, 38.4144323 ] } },
{ "type": "Feature", "properties": { "name": "VCU Health Urgent Care at Tappahannock", "place_id": "ChIJgw1bVyDLsIkRjvCahg74Pog", "rating": 2.2 }, "geometry": { "type": "Point", "coordinates": [ -76.8757444, 37.8967446 ] } },
{ "type": "Feature", "properties": { "name": "Precision Orthopedics and Sports Medicine", "place_id": "ChIJ_4bQcnSwt4kRHzt-9lztrD8", "rating": 4.7 }, "geometry": { "type": "Point", "coordinates": [ -77.0144416, 38.7836716 ] } },
{ "type": "Feature", "properties": { "name": "Robert E. Miller, MD, FAAP, PA", "place_id": "ChIJb5tyKABmt4kR6hbTnbr0j_M", "rating": 2.9 }, "geometry": { "type": "Point", "coordinates": [ -76.6408875, 38.3032023 ] } },
{ "type": "Feature", "properties": { "name": "MedStar St. Mary's Hospital", "place_id": "ChIJ3bKT9wBmt4kReP9RyAJHa00", "rating": 1.8 }, "geometry": { "type": "Point", "coordinates": [ -76.6388975, 38.3017542 ] } },
{ "type": "Feature", "properties": { "name": "MedStar Health: Primary Care at MedStar St. Mary's Hospital", "place_id": "ChIJyfjBSAdmt4kRW664XOtpT6A", "rating": 2.4 }, "geometry": { "type": "Point", "coordinates": [ -76.6347325, 38.3024297 ] } },
{ "type": "Feature", "properties": { "name": "MedStar Shah Medical Group", "place_id": "ChIJjdZTt3lkt4kRMjPN17KUTF4", "rating": 1.9 }, "geometry": { "type": "Point", "coordinates": [ -76.5525738, 38.3265592 ] } },
{ "type": "Feature", "properties": { "name": "Bayside Primary Care", "place_id": "ChIJY2VtHnyCt4kR7Ou8orsqyxI", "rating": 3.7 }, "geometry": { "type": "Point", "coordinates": [ -76.5819552, 38.5362986 ] } },
{ "type": "Feature", "properties": { "name": "Med-Surg Care", "place_id": "ChIJ1R1mPeoIt4kRQeFf3Waocw8", "rating": 4.3 }, "geometry": { "type": "Point", "coordinates": [ -76.9824343, 38.5305132 ] } },
{ "type": "Feature", "properties": { "name": "Fresenius Medical Care at Civista Medical Center", "place_id": "ChIJf53IQ-cIt4kRvayNWM2w0xk", "rating": 1.0 }, "geometry": { "type": "Point", "coordinates": [ -76.972239, 38.5290903 ] } },
{ "type": "Feature", "properties": { "name": "Patient First Primary and Urgent Care - Waldorf", "place_id": "ChIJU6rvPCWht4kRFs7HLZAdsAw", "rating": 4.1 }, "geometry": { "type": "Point", "coordinates": [ -76.9049796, 38.6330322 ] } },
{ "type": "Feature", "properties": { "name": "Clinton Medical & Urgent Care, MD USA", "place_id": "ChIJlQWwn1W9t4kRmF-LQ8m2h4U", "rating": 3.8 }, "geometry": { "type": "Point", "coordinates": [ -76.8942994, 38.766748 ] } },
{ "type": "Feature", "properties": { "name": "Capital Urgent Care", "place_id": "ChIJE5A2mKW7t4kRVrCnEmc0zu4", "rating": 4.3 }, "geometry": { "type": "Point", "coordinates": [ -76.9386941, 38.8335848 ] } },
{ "type": "Feature", "properties": { "name": "HiGi", "place_id": "ChIJIyAOOfDXuYkRqudzopOxyG4", "rating": 5.0 }, "geometry": { "type": "Point", "coordinates": [ -76.4421367, 38.3741887 ] } },
{ "type": "Feature", "properties": { "name": "MinuteClinic at CVS", "place_id": "ChIJTwUUuqCat4kRMgK043-K5Go", "rating": 3.6 }, "geometry": { "type": "Point", "coordinates": [ -76.659455, 38.7184251 ] } },
{ "type": "Feature", "properties": { "name": "CalvertHealth Medical Center", "place_id": "ChIJGf93tYmCt4kRUHcfYxctVoM", "rating": 2.7 }, "geometry": { "type": "Point", "coordinates": [ -76.5961726, 38.5595919 ] } },
{ "type": "Feature", "properties": { "name": "Patient First: Suri Rohit K MD", "place_id": "ChIJU6rvPCWht4kRSduJRe0uv7g", "rating": 2.6 }, "geometry": { "type": "Point", "coordinates": [ -76.9050271, 38.6330394 ] } },
{ "type": "Feature", "properties": { "name": "Waldorf Primary Care", "place_id": "ChIJn8lWUNKgt4kRwwUC3fIW84c", "rating": 1.9 }, "geometry": { "type": "Point", "coordinates": [ -76.8901584, 38.61645 ] } },
{ "type": "Feature", "properties": { "name": "MedStar Health: Primary Care at Charlotte Hall", "place_id": "ChIJ-z6SkfJ1t4kREsoFr1SbJq4", "rating": 4.4 }, "geometry": { "type": "Point", "coordinates": [ -76.775895, 38.4912547 ] } },
{ "type": "Feature", "properties": { "name": "AllCare Pediatrics of Waldorf", "place_id": "ChIJURCFRgWht4kRDOfj8NRt5js", "rating": 4.8 }, "geometry": { "type": "Point", "coordinates": [ -76.916904, 38.617263 ] } },
{ "type": "Feature", "properties": { "name": "UM Urgent Care | Downtown Campus", "place_id": "ChIJD0dn5FgDyIkRS6d5KSZBvkY", "rating": 3.3 }, "geometry": { "type": "Point", "coordinates": [ -76.6257596, 39.2870894 ] } },
{ "type": "Feature", "properties": { "name": "West Ocean City Injury & Illness Center", "place_id": "ChIJRVJ3AUMouYkRjHmY4xMLcDM", "rating": 3.7 }, "geometry": { "type": "Point", "coordinates": [ -75.1153116, 38.3394322 ] } },
{ "type": "Feature", "properties": { "name": "CalvertHealth Emergency Department", "place_id": "ChIJ93GjNIiCt4kRZGvYQ62cltE", "rating": 2.3 }, "geometry": { "type": "Point", "coordinates": [ -76.5963014, 38.5605636 ] } },
{ "type": "Feature", "properties": { "name": "Patriot Urgent Care - Dunkirk", "place_id": "ChIJU4nlkg6Qt4kR3nornuEFHho", "rating": 4.8 }, "geometry": { "type": "Point", "coordinates": [ -76.6575164, 38.7258949 ] } },
{ "type": "Feature", "properties": { "name": "Patriot Urgent Care", "place_id": "ChIJ8aUKCaa9t4kR3rt7pYn6Co0", "rating": 4.9 }, "geometry": { "type": "Point", "coordinates": [ -76.8832328, 38.7692037 ] } },
{ "type": "Feature", "properties": { "name": "Quality First", "place_id": "ChIJSVh5aUSlt4kRBwiARvmdo7g", "rating": 1.5 }, "geometry": { "type": "Point", "coordinates": [ -76.994919, 38.743388 ] } },
{ "type": "Feature", "properties": { "name": "MinuteClinic at CVS", "place_id": "ChIJQz0SLF2nt4kRapszUj_bVzs", "rating": 2.6 }, "geometry": { "type": "Point", "coordinates": [ -76.9388292, 38.5964918 ] } },
{ "type": "Feature", "properties": { "name": "Health Check Urgent Care", "place_id": "ChIJ-38FQr1LtokRy8h2McOdiAI", "rating": 4.9 }, "geometry": { "type": "Point", "coordinates": [ -77.2707532, 38.8974614 ] } },
{ "type": "Feature", "properties": { "name": "MedStar Shah Medical Group", "place_id": "ChIJb3g6UYiCt4kRFtlMTp0nhCA", "rating": 3.2 }, "geometry": { "type": "Point", "coordinates": [ -76.5978319, 38.5615299 ] } },
{ "type": "Feature", "properties": { "name": "Adventist Medical Group - Primary Care", "place_id": "ChIJ4YqTLOelt4kRMx1uMoGhcHA", "rating": 5.0 }, "geometry": { "type": "Point", "coordinates": [ -76.9929722, 38.744479 ] } },
{ "type": "Feature", "properties": { "name": "ExpressCare Urgent Care Center Largo", "place_id": "ChIJTR6K1tKVt4kR827wTR6nynA", "rating": 3.6 }, "geometry": { "type": "Point", "coordinates": [ -76.8233106, 38.8946877 ] } },
{ "type": "Feature", "properties": { "name": "Patient First Primary and Urgent Care - Clinton", "place_id": "ChIJd9KGMsC8t4kRNVfUGxMzWns", "rating": 4.2 }, "geometry": { "type": "Point", "coordinates": [ -76.8922058, 38.7660065 ] } },
{ "type": "Feature", "properties": { "name": "MedStar Health: Urgent Care at Annapolis", "place_id": "ChIJLxc2qCzxt4kRYU1pz7SiiOk", "rating": 4.0 }, "geometry": { "type": "Point", "coordinates": [ -76.5491463, 38.9889073 ] } },
{ "type": "Feature", "properties": { "name": "AFC Urgent Care Edgewater", "place_id": "ChIJoSR3rX_0t4kRhnZp8XCy5bU", "rating": 4.7 }, "geometry": { "type": "Point", "coordinates": [ -76.5614314, 38.941838 ] } },
{ "type": "Feature", "properties": { "name": "MinuteClinic at CVS", "place_id": "ChIJXcvWwE-Wt4kRt85MF17Q-sw", "rating": 2.5 }, "geometry": { "type": "Point", "coordinates": [ -76.7925727, 38.7843955 ] } },
{ "type": "Feature", "properties": { "name": "Tru-Health Urgent Care", "place_id": "ChIJ30UPqbzrt4kRQ-SNk6t8QoA", "rating": 5.0 }, "geometry": { "type": "Point", "coordinates": [ -76.7948557, 38.9642664 ] } },
{ "type": "Feature", "properties": { "name": "Dunkirk Urgent Care", "place_id": "ChIJRdOklA6Qt4kRiabk8lgxnm8", "rating": 5.0 }, "geometry": { "type": "Point", "coordinates": [ -76.657212, 38.725804 ] } },
{ "type": "Feature", "properties": { "name": "MedStar Health", "place_id": "ChIJEQV6oTKnt4kRXtvAQaYqKFw", "rating": 5.0 }, "geometry": { "type": "Point", "coordinates": [ -76.9190365, 38.6145589 ] } },
{ "type": "Feature", "properties": { "name": "Bay Community Health", "place_id": "ChIJV38-Q8qLt4kRMmvXeXBOt8c", "rating": 2.3 }, "geometry": { "type": "Point", "coordinates": [ -76.5124193, 38.8297633 ] } },
{ "type": "Feature", "properties": { "name": "Twin Beaches Community Health", "place_id": "ChIJQ9edZqeIt4kRT_G4XMFHih4", "rating": 4.1 }, "geometry": { "type": "Point", "coordinates": [ -76.5333277, 38.7051636 ] } },
{ "type": "Feature", "properties": { "name": "ExpressCare Urgent Care Center Gambrills", "place_id": "ChIJGQmyJ2jvt4kRr-cu4dhCQuc", "rating": 4.0 }, "geometry": { "type": "Point", "coordinates": [ -76.672734, 39.039768 ] } },
{ "type": "Feature", "properties": { "name": "MedStar Health: Urgent Care at Hyattsville", "place_id": "ChIJxY_sFeXGt4kRmMJwUso7c8E", "rating": 3.7 }, "geometry": { "type": "Point", "coordinates": [ -76.9520454, 38.9669211 ] } },
{ "type": "Feature", "properties": { "name": "Right Time Medical Center Crofton", "place_id": "ChIJq6pq0JLut4kRAZ_KTm_zZWg", "rating": 1.0 }, "geometry": { "type": "Point", "coordinates": [ -76.701282, 38.9908535 ] } },
{ "type": "Feature", "properties": { "name": "Healthy Choice Family Clinic & Urgent Care", "place_id": "ChIJFyiHrZa_t4kRlEfDgEwtWYw", "rating": 3.4 }, "geometry": { "type": "Point", "coordinates": [ -76.8555328, 38.8907743 ] } },
{ "type": "Feature", "properties": { "name": "PM Pediatric Urgent Care", "place_id": "ChIJ1_PeOOS_t4kRSFutzedd2ko", "rating": 4.7 }, "geometry": { "type": "Point", "coordinates": [ -76.905261, 38.854831 ] } },
{ "type": "Feature", "properties": { "name": "Golden Days Primary and Express Medical Care", "place_id": "ChIJj7YpZzPrt4kRYhGzrbMX3pE", "rating": 4.2 }, "geometry": { "type": "Point", "coordinates": [ -76.7714325, 38.9737212 ] } },
{ "type": "Feature", "properties": { "name": "University of Maryland Urgent Care - Kent Island", "place_id": "ChIJs_588AIbuIkRoRLAR78GRjw", "rating": 3.9 }, "geometry": { "type": "Point", "coordinates": [ -76.2772097, 38.9742707 ] } },
{ "type": "Feature", "properties": { "name": "AFC Urgent Care Edgewater (Drive Thru Covid Testing)", "place_id": "ChIJUwJOub3zt4kRbHotiqR9tBM", "rating": 4.9 }, "geometry": { "type": "Point", "coordinates": [ -76.5678328, 38.9350047 ] } },
{ "type": "Feature", "properties": { "name": "MinuteClinic at CVS", "place_id": "ChIJSXEuHfDzt4kRXAXHhAPfgjc", "rating": 2.5 }, "geometry": { "type": "Point", "coordinates": [ -76.5603643, 38.9435955 ] } },
{ "type": "Feature", "properties": { "name": "ExpressCare Urgent Care Center Bowie", "place_id": "ChIJvUCjjYHrt4kRKaHPPnIIa58", "rating": 3.8 }, "geometry": { "type": "Point", "coordinates": [ -76.7562097, 38.9713134 ] } },
{ "type": "Feature", "properties": { "name": "Omni Primary & Urgent Care", "place_id": "ChIJpWA5UM3qt4kR4UzU2bLLB8g", "rating": 3.4 }, "geometry": { "type": "Point", "coordinates": [ -76.789381, 38.900261 ] } },
{ "type": "Feature", "properties": { "name": "Patient First Primary and Urgent Care - Bowie", "place_id": "ChIJsyohvFTpt4kRZ-_LLwYcsoc", "rating": 4.0 }, "geometry": { "type": "Point", "coordinates": [ -76.735605, 38.978661 ] } },
{ "type": "Feature", "properties": { "name": "MedStar Health: Urgent Care at Waugh Chapel", "place_id": "ChIJp2rw_pvvt4kRwUf1hGOA6Gg", "rating": 4.0 }, "geometry": { "type": "Point", "coordinates": [ -76.6812488, 39.0347513 ] } },
{ "type": "Feature", "properties": { "name": "Patient First Primary and Urgent Care - Annapolis", "place_id": "ChIJy4uZBdD2t4kRDEHWEMddHHg", "rating": 4.3 }, "geometry": { "type": "Point", "coordinates": [ -76.5375012, 38.9829768 ] } },
{ "type": "Feature", "properties": { "name": "Priority Care Clinics", "place_id": "ChIJ3Zlmon_5t4kRwzZ7OFnF670", "rating": 4.7 }, "geometry": { "type": "Point", "coordinates": [ -76.5461617, 39.0771579 ] } },
{ "type": "Feature", "properties": { "name": "ExpressCare Urgent Care Center", "place_id": "ChIJH-bmm777t4kRLI5KoQ_TYDw", "rating": 3.9 }, "geometry": { "type": "Point", "coordinates": [ -76.5638405, 39.100028 ] } },
{ "type": "Feature", "properties": { "name": "WiseCare Urgent Care", "place_id": "ChIJFf3lStb7t4kR6JapnkRwi0U", "rating": 4.5 }, "geometry": { "type": "Point", "coordinates": [ -76.5504061, 39.0836785 ] } },
{ "type": "Feature", "properties": { "name": "First Call Medical Center Gambrills", "place_id": "ChIJ-fDIignvt4kRWp4KMA1pwho", "rating": 4.0 }, "geometry": { "type": "Point", "coordinates": [ -76.6889427, 39.0255941 ] } },
{ "type": "Feature", "properties": { "name": "Concentra Urgent Care", "place_id": "ChIJvdL-qpa_t4kRKCwxBG3Kg3Y", "rating": 3.7 }, "geometry": { "type": "Point", "coordinates": [ -76.8478535, 38.8700106 ] } },
{ "type": "Feature", "properties": { "name": "Express Healthcare - New Carrollton", "place_id": "ChIJfXs-M-vBt4kR8PyA-aO_rdc", "rating": 3.6 }, "geometry": { "type": "Point", "coordinates": [ -76.8686729, 38.9590239 ] } },
{ "type": "Feature", "properties": { "name": "Concentra Urgent Care", "place_id": "ChIJHwow-NHBt4kR-f1R_N48r-s", "rating": 3.6 }, "geometry": { "type": "Point", "coordinates": [ -76.8360937, 38.9508529 ] } },
{ "type": "Feature", "properties": { "name": "WiseCare Urgent Care", "place_id": "ChIJU7ibs0L7t4kR1VWlP5-5WNk", "rating": 4.8 }, "geometry": { "type": "Point", "coordinates": [ -76.6330583, 39.1185969 ] } },
{ "type": "Feature", "properties": { "name": "WiseCare Urgent Care", "place_id": "ChIJsZBlKs7-t4kRfhbc1Y-4tIc", "rating": 4.3 }, "geometry": { "type": "Point", "coordinates": [ -76.5148777, 39.1197755 ] } },
{ "type": "Feature", "properties": { "name": "Elite Urgent Care", "place_id": "ChIJkzU7x6zht4kRfW_Q9TEQS3c", "rating": 4.5 }, "geometry": { "type": "Point", "coordinates": [ -76.811163, 39.1982507 ] } },
{ "type": "Feature", "properties": { "name": "Alphaway urgent care", "place_id": "ChIJzTrKJPIByIkReJmB6MGEEns", "rating": 2.9 }, "geometry": { "type": "Point", "coordinates": [ -76.5128954, 39.2588716 ] } },
{ "type": "Feature", "properties": { "name": "MinuteClinic at CVS", "place_id": "ChIJwS87FTbxt4kRF6s29oYo-kE", "rating": 2.6 }, "geometry": { "type": "Point", "coordinates": [ -76.5558115, 38.9755842 ] } },
{ "type": "Feature", "properties": { "name": "Excelsior Urgent Care & Primary Care", "place_id": "ChIJZSlT_8vrt4kR0KP7Dt02XyY", "rating": 5.0 }, "geometry": { "type": "Point", "coordinates": [ -76.7885207, 38.9637603 ] } },
{ "type": "Feature", "properties": { "name": "Golden Days Healthcare", "place_id": "ChIJd-2WWlPpt4kRkeFLMAW9MzQ", "rating": 4.9 }, "geometry": { "type": "Point", "coordinates": [ -76.7713071, 38.9736209 ] } },
{ "type": "Feature", "properties": { "name": "MinuteClinic at CVS", "place_id": "ChIJGx8PrwXvt4kR7mKWeypWe-M", "rating": 2.6 }, "geometry": { "type": "Point", "coordinates": [ -76.6936948, 39.0186234 ] } },
{ "type": "Feature", "properties": { "name": "Evolve Direct Primary Care & Urgent Care", "place_id": "ChIJeWyTX5P2t4kR_6bkiJe8f2k", "rating": 4.8 }, "geometry": { "type": "Point", "coordinates": [ -76.520135, 38.967949 ] } },
{ "type": "Feature", "properties": { "name": "Oasis Behavioral Health Urgent Care", "place_id": "ChIJ9ZPCWjXxt4kRAuz8ZkLsqHo", "rating": 2.9 }, "geometry": { "type": "Point", "coordinates": [ -76.549835, 38.9741243 ] } },
{ "type": "Feature", "properties": { "name": "Emergency Services at UM Bowie Health Center", "place_id": "ChIJn8Wq5pHrt4kRgTirjkGfor8", "rating": 2.0 }, "geometry": { "type": "Point", "coordinates": [ -76.7459566, 38.9494063 ] } },
{ "type": "Feature", "properties": { "name": "Christie Medical Clinic", "place_id": "ChIJ79APZ0jxt4kR4I7qxTbudCI", "rating": 3.1 }, "geometry": { "type": "Point", "coordinates": [ -76.559456, 38.9743627 ] } },
{ "type": "Feature", "properties": { "name": "PM Pediatric Urgent Care", "place_id": "ChIJqQuxLsz2t4kR8bvbcItRRX0", "rating": 4.5 }, "geometry": { "type": "Point", "coordinates": [ -76.5434494, 38.9802093 ] } },
{ "type": "Feature", "properties": { "name": "MedStar Health: Medical Center at Mitchellville", "place_id": "ChIJsfJsy8zqt4kRd5qBRqN_uhk", "rating": 2.9 }, "geometry": { "type": "Point", "coordinates": [ -76.7951347, 38.9009468 ] } },
{ "type": "Feature", "properties": { "name": "Bowie Health Center-Emergency Med: Johnston Cynthia L MD", "place_id": "ChIJn0x8bI7rt4kR0uNfXNaf7dc", "rating": 5.0 }, "geometry": { "type": "Point", "coordinates": [ -76.7454977, 38.9492875 ] } },
{ "type": "Feature", "properties": { "name": "MedStar Health: Urgent Care at Pasadena", "place_id": "ChIJF-yRF3n8t4kRJ6FwPcAmXoQ", "rating": 3.7 }, "geometry": { "type": "Point", "coordinates": [ -76.5876653, 39.1246944 ] } },
{ "type": "Feature", "properties": { "name": "Patient First Primary and Urgent Care - Odenton", "place_id": "ChIJRSqv9Kflt4kRtA1U53zD1UU", "rating": 3.5 }, "geometry": { "type": "Point", "coordinates": [ -76.6864679, 39.0803882 ] } },
{ "type": "Feature", "properties": { "name": "MedStar Health: Urgent Care at Arundel Mills", "place_id": "ChIJhUZDgFvht4kRxNPd572AVQw", "rating": 3.8 }, "geometry": { "type": "Point", "coordinates": [ -76.7425754, 39.154625 ] } },
{ "type": "Feature", "properties": { "name": "Patient First Primary and Urgent Care - Pasadena", "place_id": "ChIJ1RUMR3n8t4kRo0Yc1EOBlfA", "rating": 3.8 }, "geometry": { "type": "Point", "coordinates": [ -76.5881356, 39.1253238 ] } },
{ "type": "Feature", "properties": { "name": "Patient First Primary and Urgent Care - Glen Burnie", "place_id": "ChIJbYN-JhT9t4kRpjBGZILHww4", "rating": 4.0 }, "geometry": { "type": "Point", "coordinates": [ -76.6147949, 39.1810184 ] } },
{ "type": "Feature", "properties": { "name": "Concentra Urgent Care", "place_id": "ChIJ73NxxSz9t4kRBoTe-HEiuAw", "rating": 4.1 }, "geometry": { "type": "Point", "coordinates": [ -76.6403031, 39.1754824 ] } },
{ "type": "Feature", "properties": { "name": "UMaryland Immediate Care", "place_id": "ChIJ67fpcl8DyIkR2eO0RE6lM_M", "rating": 2.8 }, "geometry": { "type": "Point", "coordinates": [ -76.6216826, 39.2875835 ] } },
{ "type": "Feature", "properties": { "name": "Work Life Urgent Care Llc", "place_id": "ChIJv34dtWX8t4kRV9ex98EMPoY", "rating": 3.6 }, "geometry": { "type": "Point", "coordinates": [ -76.5861731, 39.1350908 ] } },
{ "type": "Feature", "properties": { "name": "University of Maryland Urgent Care - Easton (Formerly ChoiceOne)", "place_id": "ChIJC4j5vIc_uIkRu9dfvlqkvd4", "rating": 4.5 }, "geometry": { "type": "Point", "coordinates": [ -76.0866628, 38.7839008 ] } },
{ "type": "Feature", "properties": { "name": "MinuteClinic at CVS", "place_id": "ChIJoQFxy3cQuIkRzQm08vV9Xh8", "rating": 3.0 }, "geometry": { "type": "Point", "coordinates": [ -76.2699067, 38.973757 ] } },
{ "type": "Feature", "properties": { "name": "MedStar Harbor Primary Care", "place_id": "ChIJ56SYG2v9t4kREJKXlrfTEq4", "rating": 5.0 }, "geometry": { "type": "Point", "coordinates": [ -76.6147876, 39.187617 ] } },
{ "type": "Feature", "properties": { "name": "PM Pediatric Urgent Care", "place_id": "ChIJO-xwQhT9t4kRNiv0o1izzI4", "rating": 4.2 }, "geometry": { "type": "Point", "coordinates": [ -76.6157666, 39.1968326 ] } },
{ "type": "Feature", "properties": { "name": "MinuteClinic at CVS", "place_id": "ChIJzejY-VH7t4kRCdDuj0R9D74", "rating": 2.2 }, "geometry": { "type": "Point", "coordinates": [ -76.6349558, 39.1171266 ] } },
{ "type": "Feature", "properties": { "name": "Patient First Primary and Urgent Care - Laurel", "place_id": "ChIJKzEGmJnnt4kRKMTwWSZVTPY", "rating": 3.8 }, "geometry": { "type": "Point", "coordinates": [ -76.807335, 39.0976026 ] } },
{ "type": "Feature", "properties": { "name": "Ouch! Urgent Care", "place_id": "ChIJywJX7TTgt4kRDUBx2dy_oDQ", "rating": 4.8 }, "geometry": { "type": "Point", "coordinates": [ -76.7825328, 39.2092253 ] } },
{ "type": "Feature", "properties": { "name": "First Call Medical Center BWI", "place_id": "ChIJIQZcHmDjt4kRK-yEBs2F9PQ", "rating": 3.4 }, "geometry": { "type": "Point", "coordinates": [ -76.6684233, 39.1804408 ] } },
{ "type": "Feature", "properties": { "name": "University of Maryland Urgent Care - Columbia", "place_id": "ChIJC8vRnD_gt4kRXalnKFMVLtc", "rating": 3.4 }, "geometry": { "type": "Point", "coordinates": [ -76.7996902, 39.2074584 ] } },
{ "type": "Feature", "properties": { "name": "Planet Health 360", "place_id": "ChIJUTYNoczht4kRoNtCiVAgUJU", "rating": 5.0 }, "geometry": { "type": "Point", "coordinates": [ -76.7280156, 39.2087866 ] } },
{ "type": "Feature", "properties": { "name": "AllCare Family Medicine And Urgent Care of Columbia", "place_id": "ChIJtao1eSjet4kR0SMvw-VdYKw", "rating": 4.4 }, "geometry": { "type": "Point", "coordinates": [ -76.8005457, 39.2098091 ] } },
{ "type": "Feature", "properties": { "name": "MinuteClinic at CVS", "place_id": "ChIJm7b87M7-t4kRY7kvEPeAbuY", "rating": 3.2 }, "geometry": { "type": "Point", "coordinates": [ -76.5178344, 39.1195759 ] } },
{ "type": "Feature", "properties": { "name": "ExpressCare Urgent Care Center", "place_id": "ChIJGZuescADyIkRAe0elfn9zJo", "rating": 4.3 }, "geometry": { "type": "Point", "coordinates": [ -76.6143777, 39.2210331 ] } },
{ "type": "Feature", "properties": { "name": "ExpressCare Urgent Care Center", "place_id": "ChIJfcMFRLMAyIkRu3HLRLonKPo", "rating": 4.0 }, "geometry": { "type": "Point", "coordinates": [ -76.4710731, 39.2702434 ] } },
{ "type": "Feature", "properties": { "name": "University of Maryland Urgent Care - Dundalk (Formerly ChoiceOne)", "place_id": "ChIJ2SG-iCkByIkRV7rEnzKgYaQ", "rating": 4.5 }, "geometry": { "type": "Point", "coordinates": [ -76.5047848, 39.2698596 ] } },
{ "type": "Feature", "properties": { "name": "ExpressCare", "place_id": "ChIJy9CkD-X9x4kRIqiwnsoMLC4", "rating": 4.0 }, "geometry": { "type": "Point", "coordinates": [ -76.4457799, 39.3336294 ] } },
{ "type": "Feature", "properties": { "name": "Perry Weisman, MD", "place_id": "ChIJ83ftUcf7t4kR5TQMZjsxOHQ", "rating": 4.8 }, "geometry": { "type": "Point", "coordinates": [ -76.5504036, 39.0836585 ] } },
{ "type": "Feature", "properties": { "name": "Concentra Urgent Care", "place_id": "ChIJPVVVTU4ByIkRKieIr4jtiZ4", "rating": 4.1 }, "geometry": { "type": "Point", "coordinates": [ -76.5314966, 39.2699776 ] } },
{ "type": "Feature", "properties": { "name": "Luminis Health Primary Care Cape St. Claire", "place_id": "ChIJA10M2Z0DuIkR1Eq7JnXWQ-Y", "rating": 3.7 }, "geometry": { "type": "Point", "coordinates": [ -76.4399982, 39.0386893 ] } },
{ "type": "Feature", "properties": { "name": "ExpressCare Urgent Care Center", "place_id": "ChIJ-Ufn0dUGyIkR1vDX0w_6-Fg", "rating": 3.5 }, "geometry": { "type": "Point", "coordinates": [ -76.50449, 39.279796 ] } },
{ "type": "Feature", "properties": { "name": "ExpressCare Urgent Care Center", "place_id": "ChIJ3eQKtYYHyIkRTD4ZLk5S9Uw", "rating": 3.6 }, "geometry": { "type": "Point", "coordinates": [ -76.4610053, 39.3167271 ] } },
{ "type": "Feature", "properties": { "name": "MedStar Health: Urgent Care at Federal Hill", "place_id": "ChIJUwvHInEDyIkRQOn-sqTsAdw", "rating": 4.0 }, "geometry": { "type": "Point", "coordinates": [ -76.6015548, 39.273014 ] } },
{ "type": "Feature", "properties": { "name": "Priority Care Clinics", "place_id": "ChIJzVzTEfQDyIkRyeYHRVonAtc", "rating": 4.0 }, "geometry": { "type": "Point", "coordinates": [ -76.567391, 39.277916 ] } },
{ "type": "Feature", "properties": { "name": "ExpressCare Urgent Care Center", "place_id": "ChIJKUFve9EdyIkRdMegB358UOs", "rating": 4.2 }, "geometry": { "type": "Point", "coordinates": [ -76.6833831, 39.2693461 ] } },
{ "type": "Feature", "properties": { "name": "Priority Care Clinics", "place_id": "ChIJwWl85RodyIkRwHOMOtHxcq0", "rating": 4.4 }, "geometry": { "type": "Point", "coordinates": [ -76.6738868, 39.2459321 ] } },
{ "type": "Feature", "properties": { "name": "Life Bridge Express Care", "place_id": "ChIJaY7Jm5YCyIkRSUz37Fo4X4s", "rating": 3.1 }, "geometry": { "type": "Point", "coordinates": [ -76.6142838, 39.2211186 ] } },
{ "type": "Feature", "properties": { "name": "Patient First Primary and Urgent Care - Bayview", "place_id": "ChIJDzGKOagGyIkRaOGWRLIEKBw", "rating": 4.5 }, "geometry": { "type": "Point", "coordinates": [ -76.5530924, 39.2879979 ] } },
{ "type": "Feature", "properties": { "name": "Allcare Family Medicine & Urgent Care of Baltimore", "place_id": "ChIJeSFFOPQDyIkRcDS1QiBhzo0", "rating": 4.6 }, "geometry": { "type": "Point", "coordinates": [ -76.5798556, 39.2806551 ] } },
{ "type": "Feature", "properties": { "name": "Concentra Urgent Care", "place_id": "ChIJFTcLmFYGyIkR6zXjy3tcppw", "rating": 4.3 }, "geometry": { "type": "Point", "coordinates": [ -76.5088211, 39.3193318 ] } },
{ "type": "Feature", "properties": { "name": "University of Maryland Urgent Care - Rotunda (Formerly ChoiceOne)", "place_id": "ChIJmWMSUC8FyIkR4dtItTb8RS0", "rating": 4.1 }, "geometry": { "type": "Point", "coordinates": [ -76.6302579, 39.3362791 ] } },
{ "type": "Feature", "properties": { "name": "University of Maryland Urgent Care - Belvedere (Formerly ChoiceOne)", "place_id": "ChIJm-0xSWwFyIkR1yJMNWTls2E", "rating": 4.3 }, "geometry": { "type": "Point", "coordinates": [ -76.6075589, 39.3645642 ] } },
{ "type": "Feature", "properties": { "name": "Concentra Urgent Care", "place_id": "ChIJsXmZwv4cyIkRR5Li6Sp5R00", "rating": 3.8 }, "geometry": { "type": "Point", "coordinates": [ -76.6841493, 39.2589192 ] } },
{ "type": "Feature", "properties": { "name": "MedStar Health: Urgent Care at Catonsville", "place_id": "ChIJG1LklMEeyIkRHECJ8K0j_yc", "rating": 4.0 }, "geometry": { "type": "Point", "coordinates": [ -76.761252, 39.2858527 ] } },
{ "type": "Feature", "properties": { "name": "CityCare Family & Urgent Care Services Inc", "place_id": "ChIJVVWOZrEEyIkRgn-MSPXPARM", "rating": 4.0 }, "geometry": { "type": "Point", "coordinates": [ -76.6350377, 39.3040292 ] } },
{ "type": "Feature", "properties": { "name": "Concentra Urgent Care", "place_id": "ChIJAwDdM2ADyIkRMcf26LPF1qI", "rating": 4.1 }, "geometry": { "type": "Point", "coordinates": [ -76.6157126, 39.2870972 ] } },
{ "type": "Feature", "properties": { "name": "EZMED Timonium Urgent Care", "place_id": "ChIJN5pMrAgOyIkR_Vg0A5C-lvg", "rating": 4.6 }, "geometry": { "type": "Point", "coordinates": [ -76.6288355, 39.4477642 ] } },
{ "type": "Feature", "properties": { "name": "MedStar Health: Urgent Care at Columbia", "place_id": "ChIJw0lUTx3ft4kRAVVHzsYTVWE", "rating": 4.0 }, "geometry": { "type": "Point", "coordinates": [ -76.885009, 39.197611 ] } },
{ "type": "Feature", "properties": { "name": "Centennial Medical Group Urgent Care", "place_id": "ChIJCwhECp_et4kRlQjB_Gsh98g", "rating": 2.2 }, "geometry": { "type": "Point", "coordinates": [ -76.8947384, 39.1588281 ] } },
{ "type": "Feature", "properties": { "name": "MedStar Harbor Primary Care", "place_id": "ChIJV921E8uskVQRhsAvySmKXm4", "rating": 3.0 }, "geometry": { "type": "Point", "coordinates": [ -76.4416444, 39.2353779 ] } },
{ "type": "Feature", "properties": { "name": "ExpressCare of Overlea", "place_id": "ChIJQ6VX9ZoIyIkRhGLP00kOU7c", "rating": 3.8 }, "geometry": { "type": "Point", "coordinates": [ -76.5174713, 39.3671898 ] } },
{ "type": "Feature", "properties": { "name": "ExpressCare Urgent Care Centers", "place_id": "ChIJKwjDFrIIyIkRtYG5mirHvt0", "rating": 3.8 }, "geometry": { "type": "Point", "coordinates": [ -76.5420748, 39.3718736 ] } },
{ "type": "Feature", "properties": { "name": "Priority Care Clinics", "place_id": "ChIJRebgDLLjx4kRhVNcT867fwQ", "rating": 4.1 }, "geometry": { "type": "Point", "coordinates": [ -76.4520097, 39.3690847 ] } },
{ "type": "Feature", "properties": { "name": "ExpressCare", "place_id": "ChIJzd51shQPyIkRozk-4COfWLA", "rating": 3.6 }, "geometry": { "type": "Point", "coordinates": [ -76.576991, 39.38568 ] } },
{ "type": "Feature", "properties": { "name": "MedStar Health: Urgent Care at Perry Hall", "place_id": "ChIJ8RldsFEIyIkRkYF7FLBU36Y", "rating": 4.3 }, "geometry": { "type": "Point", "coordinates": [ -76.4922065, 39.3892859 ] } },
{ "type": "Feature", "properties": { "name": "Patient First Primary and Urgent Care - White Marsh", "place_id": "ChIJ36BpIiEIyIkR_5OizAe76ek", "rating": 4.1 }, "geometry": { "type": "Point", "coordinates": [ -76.4589528, 39.3755412 ] } },
{ "type": "Feature", "properties": { "name": "MedStar Health: Urgent Care in Towson at Anneslie", "place_id": "ChIJi5pqH4kPyIkRwuJ8iXT0ps4", "rating": 3.9 }, "geometry": { "type": "Point", "coordinates": [ -76.6085744, 39.372343 ] } },
{ "type": "Feature", "properties": { "name": "MedStar Health: Urgent Care in Towson at Hillside Avenue", "place_id": "ChIJfdW8slYPyIkRkU9bcbIlC7c", "rating": 4.6 }, "geometry": { "type": "Point", "coordinates": [ -76.604687, 39.3909728 ] } },
{ "type": "Feature", "properties": { "name": "Patient First Primary and Urgent Care - Perry Hall", "place_id": "ChIJc6nwsLQJyIkRZubMaYrMYcQ", "rating": 4.1 }, "geometry": { "type": "Point", "coordinates": [ -76.4858886, 39.3945127 ] } },
{ "type": "Feature", "properties": { "name": "MedStar Health: Urgent Care at Belcamp", "place_id": "ChIJ1_l3oSLox4kRVKM6OcrITvg", "rating": 4.4 }, "geometry": { "type": "Point", "coordinates": [ -76.2479409, 39.480645 ] } },
{ "type": "Feature", "properties": { "name": "Total Urgent Care", "place_id": "ChIJg28yUlLmx4kRySs3Mv0SHMM", "rating": 3.6 }, "geometry": { "type": "Point", "coordinates": [ -76.3084804, 39.4526019 ] } },
{ "type": "Feature", "properties": { "name": "ExpressCare Urgent Care Center Festival", "place_id": "ChIJ_3fZGmLnx4kRE15UjvRa8U4", "rating": 3.7 }, "geometry": { "type": "Point", "coordinates": [ -76.3275919, 39.4953946 ] } },
{ "type": "Feature", "properties": { "name": "Infinite Medical Express", "place_id": "ChIJo69n9mfmx4kRdYt2lSr1K_I", "rating": 4.9 }, "geometry": { "type": "Point", "coordinates": [ -76.3244779, 39.4325133 ] } },
{ "type": "Feature", "properties": { "name": "MedStar Health: Urgent Care at Bel Air", "place_id": "ChIJE5k0h4bdx4kR-lffwigBJCY", "rating": 4.2 }, "geometry": { "type": "Point", "coordinates": [ -76.3251945, 39.5030048 ] } },
{ "type": "Feature", "properties": { "name": "University of Maryland Urgent Care - Aberdeen (Formerly ChoiceOne)", "place_id": "ChIJM8F-lfXBx4kR2ZZvSLFnlqU", "rating": 4.3 }, "geometry": { "type": "Point", "coordinates": [ -76.1783752, 39.4969139 ] } },
{ "type": "Feature", "properties": { "name": "Urgent Care at Sinai Hospital", "place_id": "ChIJS82hf7MbyIkRtBfN93HOdMg", "rating": 2.8 }, "geometry": { "type": "Point", "coordinates": [ -76.6599878, 39.3511594 ] } },
{ "type": "Feature", "properties": { "name": "University of Maryland Urgent Care - Fallston (Formerly ChoiceOne)", "place_id": "ChIJZ9KS6pbgx4kR_F87CMBgLkk", "rating": 4.4 }, "geometry": { "type": "Point", "coordinates": [ -76.3928413, 39.4924084 ] } },
{ "type": "Feature", "properties": { "name": "Patient First Primary and Urgent Care - Towson", "place_id": "ChIJ20dv1UwOyIkR1aP5Ifw1IV4", "rating": 4.0 }, "geometry": { "type": "Point", "coordinates": [ -76.6094821, 39.4099651 ] } },
{ "type": "Feature", "properties": { "name": "ExpressCare Urgent Care Center", "place_id": "ChIJ43MhdzUZyIkRx6p7_2EYGd4", "rating": 4.2 }, "geometry": { "type": "Point", "coordinates": [ -76.7786903, 39.3616423 ] } },
{ "type": "Feature", "properties": { "name": "MedStar Health: Urgent Care at Pikesville", "place_id": "ChIJf7wt8lQXyIkRVy8DeFIKU8c", "rating": 4.0 }, "geometry": { "type": "Point", "coordinates": [ -76.7359356, 39.3871884 ] } },
{ "type": "Feature", "properties": { "name": "ExpressCare Urgent Care Center", "place_id": "ChIJB0F7AKoXyIkRVa1qp5lL9nQ", "rating": 3.3 }, "geometry": { "type": "Point", "coordinates": [ -76.7785419, 39.4216377 ] } },
{ "type": "Feature", "properties": { "name": "MinuteClinic at CVS", "place_id": "ChIJHbjHXp_ix4kRmRmggmVRtmk", "rating": 3.3 }, "geometry": { "type": "Point", "coordinates": [ -76.4514074, 39.3711591 ] } },
{ "type": "Feature", "properties": { "name": "ExpressCare of BelAir", "place_id": "ChIJdWL9Svjcx4kRnu8nyDQy6lY", "rating": 3.1 }, "geometry": { "type": "Point", "coordinates": [ -76.3146451, 39.546107 ] } },
{ "type": "Feature", "properties": { "name": "PM Pediatric Urgent Care", "place_id": "ChIJb8_jmU0JyIkRDX1RI9fGGD4", "rating": 4.5 }, "geometry": { "type": "Point", "coordinates": [ -76.5213668, 39.3955825 ] } },
{ "type": "Feature", "properties": { "name": "MD Immediate Care", "place_id": "ChIJq6r-sNPdx4kR635Czvo3a8o", "rating": 2.6 }, "geometry": { "type": "Point", "coordinates": [ -76.3556716, 39.5389661 ] } },
{ "type": "Feature", "properties": { "name": "ExpressCare", "place_id": "ChIJex8k3PsNyIkRa2lUOSEwiRs", "rating": 3.7 }, "geometry": { "type": "Point", "coordinates": [ -76.6351279, 39.4600106 ] } },
{ "type": "Feature", "properties": { "name": "U.N.I. Urgent Care", "place_id": "ChIJq6r-JcjAx4kR1Ip_oNrSb-k", "rating": 2.8 }, "geometry": { "type": "Point", "coordinates": [ -76.1090158, 39.5449473 ] } },
{ "type": "Feature", "properties": { "name": "Eastern Shore Urgent Care", "place_id": "ChIJvar5fO-Lx4kRv0TZjo9hz8Y", "rating": 4.8 }, "geometry": { "type": "Point", "coordinates": [ -76.0564425, 39.2064693 ] } },
{ "type": "Feature", "properties": { "name": "University of Maryland Urgent Care - Forest Hill (Formerly ChoiceOne)", "place_id": "ChIJQdOTvJnex4kRBNF-SZ9I9qs", "rating": 4.4 }, "geometry": { "type": "Point", "coordinates": [ -76.3736315, 39.561015 ] } },
{ "type": "Feature", "properties": { "name": "Children's Urgent Care of Towson", "place_id": "ChIJL4FUWA8PyIkRnQ7tejhQYW4", "rating": 4.5 }, "geometry": { "type": "Point", "coordinates": [ -76.5634983, 39.3967277 ] } },
{ "type": "Feature", "properties": { "name": "MD Immediate Care", "place_id": "ChIJrWZdSK_Ax4kRBzquifittqs", "rating": 2.8 }, "geometry": { "type": "Point", "coordinates": [ -76.0920575, 39.5423491 ] } },
{ "type": "Feature", "properties": { "name": "Patient First Primary and Urgent Care - Aberdeen", "place_id": "ChIJTwTD_dLDx4kRxmY3iCYv2i4", "rating": 4.4 }, "geometry": { "type": "Point", "coordinates": [ -76.1854175, 39.524285 ] } },
{ "type": "Feature", "properties": { "name": "Expresscare Urgent Care Center Forest Hill", "place_id": "ChIJq-Am-NTfx4kR95tniiS6_Tg", "rating": 3.9 }, "geometry": { "type": "Point", "coordinates": [ -76.3846941, 39.5723122 ] } },
{ "type": "Feature", "properties": { "name": "Patient First Primary and Urgent Care - Bel Air", "place_id": "ChIJw2D_icHdx4kRCZFeYHH6V0M", "rating": 4.1 }, "geometry": { "type": "Point", "coordinates": [ -76.3460646, 39.5222431 ] } },
{ "type": "Feature", "properties": { "name": "MDIC Urgent Care", "place_id": "ChIJq6o6SK_Ax4kRamK6wL-av5g", "rating": 2.3 }, "geometry": { "type": "Point", "coordinates": [ -76.0920547, 39.5423574 ] } },
{ "type": "Feature", "properties": { "name": "Children's Urgent Care", "place_id": "ChIJ7wVyHBPdx4kRIBYePOI3onY", "rating": 3.3 }, "geometry": { "type": "Point", "coordinates": [ -76.3531026, 39.524597 ] } },
{ "type": "Feature", "properties": { "name": "University of Maryland Urgent Care - Phoenix (Formerly ChoiceOne)", "place_id": "ChIJE6Wfxa8MyIkRRxWndy5xsAI", "rating": 4.2 }, "geometry": { "type": "Point", "coordinates": [ -76.5591637, 39.517404 ] } },
{ "type": "Feature", "properties": { "name": "MinuteClinic at CVS", "place_id": "ChIJ22iJTsQHyIkRmJvsSW0H3OM", "rating": 1.0 }, "geometry": { "type": "Point", "coordinates": [ -76.5303008, 39.3545514 ] } },
{ "type": "Feature", "properties": { "name": "Lifebridge Health", "place_id": "ChIJc2gHJF7mx4kRUYHTAFs1lc0", "rating": 3.0 }, "geometry": { "type": "Point", "coordinates": [ -76.3136887, 39.4359836 ] } },
{ "type": "Feature", "properties": { "name": "Aberdeen Medical Clinic", "place_id": "ChIJS_SNxgLmx4kRT3c0cbzWt3g", "rating": 2.5 }, "geometry": { "type": "Point", "coordinates": [ -76.2728446, 39.4198412 ] } },
{ "type": "Feature", "properties": { "name": "ChristianaCare-GoHealth Urgent Care", "place_id": "ChIJSYZLqPm7x4kRrx15F9F45To", "rating": 3.5 }, "geometry": { "type": "Point", "coordinates": [ -75.9499249, 39.6110908 ] } },
{ "type": "Feature", "properties": { "name": "MinuteClinic at CVS", "place_id": "ChIJMeJjacPdx4kRZD14dUWmp7Q", "rating": 2.3 }, "geometry": { "type": "Point", "coordinates": [ -76.3508851, 39.5257475 ] } },
{ "type": "Feature", "properties": { "name": "MedStar Health: Medical Center at Bel Air Medical Campus", "place_id": "ChIJOYhtr-Pdx4kRxsX7tqWJpt0", "rating": 2.9 }, "geometry": { "type": "Point", "coordinates": [ -76.3254956, 39.5031899 ] } },
{ "type": "Feature", "properties": { "name": "CityCare Family Practice Inc", "place_id": "ChIJh-Z_R3Hdx4kR_1NTxkOz9UQ", "rating": 1.0 }, "geometry": { "type": "Point", "coordinates": [ -76.3630934, 39.5287763 ] } },
{ "type": "Feature", "properties": { "name": "Kaiser Permanente Abingdon Medical Center", "place_id": "ChIJs1i5qrznx4kRGpxc52NEmIg", "rating": 4.5 }, "geometry": { "type": "Point", "coordinates": [ -76.3061598, 39.4699321 ] } },
{ "type": "Feature", "properties": { "name": "Prompt Occupational Health Care", "place_id": "ChIJBUQzE9PDx4kRKao5nlA70MU", "rating": 4.2 }, "geometry": { "type": "Point", "coordinates": [ -76.1858737, 39.5237737 ] } },
{ "type": "Feature", "properties": { "name": "Hereford Urgent Care", "place_id": "ChIJB4YzT09tyIkRcIe-xFEBPKA", "rating": 4.2 }, "geometry": { "type": "Point", "coordinates": [ -76.6638583, 39.5901786 ] } },
{ "type": "Feature", "properties": { "name": "Concentra Urgent Care", "place_id": "ChIJV0KK6hUOyIkRV5i6pJqDKrw", "rating": 3.9 }, "geometry": { "type": "Point", "coordinates": [ -76.6232065, 39.4325678 ] } },
{ "type": "Feature", "properties": { "name": "Advanced Urgent Care | Kaiser Permanente Lutherville-Timonium Medical Center", "place_id": "ChIJWffXqP0PyIkRCnxWP6B1JMU", "rating": 3.0 }, "geometry": { "type": "Point", "coordinates": [ -76.6366958, 39.4494934 ] } },
{ "type": "Feature", "properties": { "name": "Worksite Medical", "place_id": "ChIJk6hfnyLox4kRsKcUZS3zrIM", "rating": 4.4 }, "geometry": { "type": "Point", "coordinates": [ -76.2479165, 39.480516 ] } },
{ "type": "Feature", "properties": { "name": "Mary Washington Urgent Care", "place_id": "ChIJKaV3DUYht4kRqlJtN0rWBro", "rating": 3.7 }, "geometry": { "type": "Point", "coordinates": [ -77.1707802, 38.2602016 ] } },
{ "type": "Feature", "properties": { "name": "MinuteClinic at CVS", "place_id": "ChIJo6CXRFUgt4kRsha3VBHCDEI", "rating": 3.1 }, "geometry": { "type": "Point", "coordinates": [ -77.149505, 38.2381258 ] } },
{ "type": "Feature", "properties": { "name": "Mary Washington Primary Care", "place_id": "ChIJB20dFrMZt4kRZ47AYre0S_o", "rating": 4.0 }, "geometry": { "type": "Point", "coordinates": [ -77.054018, 38.3388003 ] } },
{ "type": "Feature", "properties": { "name": "King George Medical Center", "place_id": "ChIJp638BZ0Zt4kReCFysOpgyHY", "rating": 2.8 }, "geometry": { "type": "Point", "coordinates": [ -77.0539897, 38.3388625 ] } },
{ "type": "Feature", "properties": { "name": "Virginia Hospital Center Physicians Group Immediate Care", "place_id": "ChIJZ9FwLFC3t4kRM5mTIQflnsk", "rating": 3.4 }, "geometry": { "type": "Point", "coordinates": [ -77.0590773, 38.8530465 ] } },
{ "type": "Feature", "properties": { "name": "Premier Health Express Urgent Care-Oxon Hill", "place_id": "ChIJhziIxT-7t4kRCzmK8Zw_oKI", "rating": 4.2 }, "geometry": { "type": "Point", "coordinates": [ -76.963194, 38.812836 ] } },
{ "type": "Feature", "properties": { "name": "Faithfirst Health Clinic and Urgent Care LLC", "place_id": "ChIJVVUFnOC7t4kRPvyi3v_DmP0", "rating": 3.9 }, "geometry": { "type": "Point", "coordinates": [ -76.9409449, 38.8303857 ] } },
{ "type": "Feature", "properties": { "name": "Vitals Primary Care & Urgent Care of Mount Vernon, Alexandria, VA", "place_id": "ChIJz_j3KhSut4kRu9VoyntVsA8", "rating": 2.3 }, "geometry": { "type": "Point", "coordinates": [ -77.0827126, 38.751948 ] } },
{ "type": "Feature", "properties": { "name": "Fatemeh Hosseinkhah, MD | Kaiser Permanente", "place_id": "ChIJ1WalXnK8t4kR0WwcPxdiLbs", "rating": 5.0 }, "geometry": { "type": "Point", "coordinates": [ -76.908394, 38.8068089 ] } },
{ "type": "Feature", "properties": { "name": "Major Medical Llc", "place_id": "ChIJx9tEhIu8t4kRZw-vGT8rV7c", "rating": 3.9 }, "geometry": { "type": "Point", "coordinates": [ -76.903017, 38.7650902 ] } },
{ "type": "Feature", "properties": { "name": "MedStar Health: Urgent Care at Capitol Hill", "place_id": "ChIJMaWzfzG4t4kRdqqwVRZCPew", "rating": 3.9 }, "geometry": { "type": "Point", "coordinates": [ -76.9958522, 38.8864613 ] } },
{ "type": "Feature", "properties": { "name": "Mbi Urgent Care", "place_id": "ChIJI5Lhzra4t4kRJfQo6gKe_1k", "rating": 3.6 }, "geometry": { "type": "Point", "coordinates": [ -76.9259358, 38.8985215 ] } },
{ "type": "Feature", "properties": { "name": "AllCare Family Medicine & Primary Care", "place_id": "ChIJQ7mg8KC5t4kRj4FlMsATwCk", "rating": 4.4 }, "geometry": { "type": "Point", "coordinates": [ -77.001414, 38.899916 ] } },
{ "type": "Feature", "properties": { "name": "Asap Medical Clinic (Urgent Care)", "place_id": "ChIJ3-8Z707Bt4kRhaZtlQ4kn8s", "rating": 3.7 }, "geometry": { "type": "Point", "coordinates": [ -76.981349, 38.8035484 ] } },
{ "type": "Feature", "properties": { "name": "Advanced Urgent Care | Kaiser Permanente Capitol Hill Medical Center", "place_id": "ChIJF32uoYK5t4kR8bmWRY5BHlU", "rating": 2.4 }, "geometry": { "type": "Point", "coordinates": [ -77.0039961, 38.8995402 ] } },
{ "type": "Feature", "properties": { "name": "GW Immediate & Primary Care - Rhode Island Avenue", "place_id": "ChIJ__8_wQm4t4kRFiZvZ4ISnCU", "rating": 2.6 }, "geometry": { "type": "Point", "coordinates": [ -76.9951723, 38.920851 ] } },
{ "type": "Feature", "properties": { "name": "Saving Lives Center Family Clinic and Urgent Visit", "place_id": "ChIJE2RdEKu5t4kRapboYvD0dfU", "rating": 5.0 }, "geometry": { "type": "Point", "coordinates": [ -76.9406826, 38.8680411 ] } },
{ "type": "Feature", "properties": { "name": "MinuteClinic at CVS", "place_id": "ChIJBcXCfOy4t4kRsBeKfkLe3l0", "rating": 2.9 }, "geometry": { "type": "Point", "coordinates": [ -76.9473007, 38.8931822 ] } },
{ "type": "Feature", "properties": { "name": "Advanced Urgent Care | Kaiser Permanente Largo Medical Center", "place_id": "ChIJc3--NcjBt4kRZBmLS9DIjhU", "rating": 2.6 }, "geometry": { "type": "Point", "coordinates": [ -76.8356974, 38.9069877 ] } },
{ "type": "Feature", "properties": { "name": "Express Healthcare, LLC", "place_id": "ChIJdxtb0-LDt4kRdo3yweiWTgE", "rating": 3.4 }, "geometry": { "type": "Point", "coordinates": [ -76.9066426, 38.9964472 ] } },
{ "type": "Feature", "properties": { "name": "Falls Church Urgent Care & Walk-In Clinic", "place_id": "ChIJudtTn4mzt4kRUEJGj_yntPs", "rating": 3.5 }, "geometry": { "type": "Point", "coordinates": [ -77.1345621, 38.8487122 ] } },
{ "type": "Feature", "properties": { "name": "The Convenient Clinic", "place_id": "ChIJWWe_x13Ht4kRoek9E0lhAVU", "rating": 4.9 }, "geometry": { "type": "Point", "coordinates": [ -76.9915908, 38.944375 ] } },
{ "type": "Feature", "properties": { "name": "Saima Siddiqui, M.D.", "place_id": "ChIJVx-ETgbAt4kRkK8WXcQe0qA", "rating": 5.0 }, "geometry": { "type": "Point", "coordinates": [ -76.8356974, 38.9069877 ] } },
{ "type": "Feature", "properties": { "name": "Patient First Primary and Urgent Care - Landover Hills", "place_id": "ChIJoeyXzs7At4kRpKLkTeuyAL0", "rating": 4.0 }, "geometry": { "type": "Point", "coordinates": [ -76.9105232, 38.9383124 ] } },
{ "type": "Feature", "properties": { "name": "Healthy Choice Family Clinic and Urgent Care", "place_id": "ChIJ6zJc5ozAt4kRmCkplkKnqpE", "rating": 3.4 }, "geometry": { "type": "Point", "coordinates": [ -76.8801775, 38.9281952 ] } },
{ "type": "Feature", "properties": { "name": "Patient First Primary and Urgent Care - Beltsville", "place_id": "ChIJa7QAGnjEt4kRn2retKN-gOY", "rating": 3.9 }, "geometry": { "type": "Point", "coordinates": [ -76.9193177, 39.0273312 ] } },
{ "type": "Feature", "properties": { "name": "Cordial Health Care Clinic", "place_id": "ChIJAX-qLw7Dt4kRI5nlBlKQdFM", "rating": 4.2 }, "geometry": { "type": "Point", "coordinates": [ -76.8347234, 38.9903771 ] } },
{ "type": "Feature", "properties": { "name": "Enoh E Akpandak, M.D.", "place_id": "ChIJ1WalXnK8t4kRxZ3d7lJLIqo", "rating": 5.0 }, "geometry": { "type": "Point", "coordinates": [ -76.835541, 38.9069948 ] } },
{ "type": "Feature", "properties": { "name": "Greenbelt Medical LLC", "place_id": "ChIJY03YKnzBt4kRgVsuBR6AbGY", "rating": 3.3 }, "geometry": { "type": "Point", "coordinates": [ -76.8768028, 38.988854 ] } },
{ "type": "Feature", "properties": { "name": "College Park Medical Center", "place_id": "ChIJccDLT6TGt4kRdGbofnYcdkc", "rating": 4.2 }, "geometry": { "type": "Point", "coordinates": [ -76.9330714, 38.9903205 ] } },
{ "type": "Feature", "properties": { "name": "Cityworld Urgent Care and Family Clinic", "place_id": "ChIJCx1Hm6vDt4kRw1uap4bsC5M", "rating": 3.9 }, "geometry": { "type": "Point", "coordinates": [ -76.906728, 38.9964147 ] } },
{ "type": "Feature", "properties": { "name": "Ace Urgent Care and Clinic", "place_id": "ChIJY3JJUn7Bt4kRDBshOpzbjw4", "rating": 2.6 }, "geometry": { "type": "Point", "coordinates": [ -76.874534, 38.9889242 ] } },
{ "type": "Feature", "properties": { "name": "SDM 1-Stop Primary Urgent Care", "place_id": "ChIJw8Cw0jHGt4kRnU-luVjqbm4", "rating": 4.1 }, "geometry": { "type": "Point", "coordinates": [ -77.0009794, 38.9672154 ] } },
{ "type": "Feature", "properties": { "name": "Luminis Health Primary Care Annapolis", "place_id": "ChIJxYZxtAT3t4kRiNFYOqNYcIY", "rating": 2.9 }, "geometry": { "type": "Point", "coordinates": [ -76.5374484, 38.9905838 ] } },
{ "type": "Feature", "properties": { "name": "AAMC3720 Mountain Rd", "place_id": "ChIJ6zGcC8j-t4kRP6Jz_1_r4ik", "rating": 5.0 }, "geometry": { "type": "Point", "coordinates": [ -76.5244491, 39.1239432 ] } },
{ "type": "Feature", "properties": { "name": "Patient First Primary and Urgent Care - Catonsville", "place_id": "ChIJnVyuVpUeyIkRlGJKPODpR2o", "rating": 3.8 }, "geometry": { "type": "Point", "coordinates": [ -76.7562093, 39.2836189 ] } },
{ "type": "Feature", "properties": { "name": "Advanced Urgent Care | Kaiser Permanente South Baltimore County Medical Center", "place_id": "ChIJh2Ar4fsdyIkRqpjYCTqlce0", "rating": 3.9 }, "geometry": { "type": "Point", "coordinates": [ -76.6734818, 39.2575822 ] } },
{ "type": "Feature", "properties": { "name": "MedStar Health: Primary Care at MedStar Franklin Square Medical Center", "place_id": "ChIJQcBT1d8HyIkRJkiQGPTwY1g", "rating": 3.0 }, "geometry": { "type": "Point", "coordinates": [ -76.4780466, 39.3511042 ] } },
{ "type": "Feature", "properties": { "name": "Patient First Primary and Urgent Care - Lutherville", "place_id": "ChIJ-5S21LURyIkR-b4ihcYxR88", "rating": 4.5 }, "geometry": { "type": "Point", "coordinates": [ -76.6670473, 39.4214134 ] } },
{ "type": "Feature", "properties": { "name": "MedStar Health: Primary Care at Bel Air", "place_id": "ChIJq6qqnYbdx4kRMgpr-PE0FqQ", "rating": 4.1 }, "geometry": { "type": "Point", "coordinates": [ -76.3251945, 39.5030048 ] } },
{ "type": "Feature", "properties": { "name": "Plumtree Family Health Center", "place_id": "ChIJnc1Am4jdx4kRuwEsnO8XB9k", "rating": 3.3 }, "geometry": { "type": "Point", "coordinates": [ -76.3297119, 39.5020866 ] } },
{ "type": "Feature", "properties": { "name": "AFC Urgent Care Woodbridge", "place_id": "ChIJg4O6zdtVtokRxI6OEvnms-Y", "rating": 4.9 }, "geometry": { "type": "Point", "coordinates": [ -77.2585185, 38.6502192 ] } },
{ "type": "Feature", "properties": { "name": "Centercare Urgent Care (Fredericksburg, Route 1)", "place_id": "ChIJS_AM3ijBtokRI8-KKQbSRrk", "rating": 5.0 }, "geometry": { "type": "Point", "coordinates": [ -77.480437, 38.3038027 ] } },
{ "type": "Feature", "properties": { "name": "My Urgent Care", "place_id": "ChIJIyn99utWtokRqZzo3-t02io", "rating": 3.6 }, "geometry": { "type": "Point", "coordinates": [ -77.2691361, 38.6360246 ] } },
{ "type": "Feature", "properties": { "name": "Medical & Urgent Care", "place_id": "ChIJr_u7WcHvtokR_bLVg9ye-_g", "rating": 1.0 }, "geometry": { "type": "Point", "coordinates": [ -77.4046409, 38.4537424 ] } },
{ "type": "Feature", "properties": { "name": "Thrive Primary Care, LLC", "place_id": "ChIJQ80PHOh1t4kRtv2vPCIzmyE", "rating": 4.0 }, "geometry": { "type": "Point", "coordinates": [ -76.7773806, 38.5348337 ] } },
{ "type": "Feature", "properties": { "name": "MedStar Health: Medical Center at Brandywine", "place_id": "ChIJ9e8gM1eit4kREz23cA2fICU", "rating": 4.0 }, "geometry": { "type": "Point", "coordinates": [ -76.8624496, 38.6965484 ] } },
{ "type": "Feature", "properties": { "name": "Hispanic American Pediatrics & Family Care LLC", "place_id": "ChIJKfj5hjyht4kRXpyM8uE0Gmc", "rating": 4.3 }, "geometry": { "type": "Point", "coordinates": [ -76.8863744, 38.6498399 ] } },
{ "type": "Feature", "properties": { "name": "MedStar Health: Primary Care at Clinton", "place_id": "ChIJBTWO-NS8t4kRcFw0_25CPfs", "rating": 4.7 }, "geometry": { "type": "Point", "coordinates": [ -76.875344, 38.7466663 ] } },
{ "type": "Feature", "properties": { "name": "MedStar Health: Urgent Care at Alexandria", "place_id": "ChIJLc1_bWixt4kRA6KFxMYQRD4", "rating": 3.5 }, "geometry": { "type": "Point", "coordinates": [ -77.0903402, 38.8285008 ] } },
{ "type": "Feature", "properties": { "name": "MedStar Health: Urgent Care at Silver Spring", "place_id": "ChIJBaq9lFjPt4kRCdxHHwom-YM", "rating": 4.2 }, "geometry": { "type": "Point", "coordinates": [ -77.011749, 39.020027 ] } },
{ "type": "Feature", "properties": { "name": "Cityworld Primary care and Urgent Care clinic", "place_id": "ChIJWW430drDt4kRhxBzopfDki0", "rating": 3.7 }, "geometry": { "type": "Point", "coordinates": [ -76.9066656, 38.9966007 ] } },
{ "type": "Feature", "properties": { "name": "Patriot Urgent Care - Laurel", "place_id": "ChIJL89H2Tzdt4kRQRGnVIgfw90", "rating": 4.4 }, "geometry": { "type": "Point", "coordinates": [ -76.8591835, 39.0884971 ] } },
{ "type": "Feature", "properties": { "name": "Premier Health Express Urgent Care-Columbia", "place_id": "ChIJ03mqqgjft4kRKZJD0DbVbng", "rating": 3.9 }, "geometry": { "type": "Point", "coordinates": [ -76.8484021, 39.1797121 ] } },
{ "type": "Feature", "properties": { "name": "MinuteClinic at CVS", "place_id": "ChIJuWYLMa3it4kRbUtH0EshJao", "rating": 2.1 }, "geometry": { "type": "Point", "coordinates": [ -76.6410695, 39.1986792 ] } },
{ "type": "Feature", "properties": { "name": "Concentra", "place_id": "ChIJ2TacQ2MdyIkRdIh5LkdT44k", "rating": 5.0 }, "geometry": { "type": "Point", "coordinates": [ -76.6744344, 39.2171051 ] } },
{ "type": "Feature", "properties": { "name": "MinuteClinic at CVS", "place_id": "ChIJdePte34DyIkR9gIBnEd3QlY", "rating": 3.6 }, "geometry": { "type": "Point", "coordinates": [ -76.60059, 39.28398 ] } },
{ "type": "Feature", "properties": { "name": "Zahra Kiran, M.D. | Kaiser Permanente", "place_id": "ChIJF3tMeYIEyIkRdjUWyUxQdjA", "rating": 5.0 }, "geometry": { "type": "Point", "coordinates": [ -76.603469, 39.2868852 ] } },
{ "type": "Feature", "properties": { "name": "Multi Specialty Health Care", "place_id": "ChIJ_f6-pCoByIkRkKFcWDjgMTQ", "rating": 4.9 }, "geometry": { "type": "Point", "coordinates": [ -76.503899, 39.274171 ] } },
{ "type": "Feature", "properties": { "name": "MedStar Health: Primary Care at Dundalk Professional Center", "place_id": "ChIJ6dAzxCoByIkR5WPjtAXwLX8", "rating": 4.1 }, "geometry": { "type": "Point", "coordinates": [ -76.5041891, 39.2742082 ] } },
{ "type": "Feature", "properties": { "name": "Kaiser Permanente White Marsh Medical Center", "place_id": "ChIJJdzaCCEIyIkRuFww6_vhct8", "rating": 4.5 }, "geometry": { "type": "Point", "coordinates": [ -76.4609601, 39.3737789 ] } },
{ "type": "Feature", "properties": { "name": "MinuteClinic at CVS", "place_id": "ChIJ10VSR_oNyIkRTQqBAzstWDA", "rating": 2.9 }, "geometry": { "type": "Point", "coordinates": [ -76.6335181, 39.462204 ] } },
{ "type": "Feature", "properties": { "name": "MinuteClinic at CVS", "place_id": "ChIJX7_KOk0OyIkRp0orLOhXiKk", "rating": 2.3 }, "geometry": { "type": "Point", "coordinates": [ -76.6086873, 39.4104051 ] } },
{ "type": "Feature", "properties": { "name": "ProTelix Health Clinic", "place_id": "ChIJ2ftgls8NyIkRkVFOffOMY6I", "rating": 4.8 }, "geometry": { "type": "Point", "coordinates": [ -76.6352691, 39.4562339 ] } },
{ "type": "Feature", "properties": { "name": "Sincere Urgent Care", "place_id": "ChIJA93CFeJbwokRW-dIEKevwpA", "rating": 5.0 }, "geometry": { "type": "Point", "coordinates": [ -74.012619, 40.6425908 ] } },
{ "type": "Feature", "properties": { "name": "MedStar Health: Primary Care at White Plains", "place_id": "ChIJw9n3RV2nt4kRGHGvz95Cams", "rating": 4.7 }, "geometry": { "type": "Point", "coordinates": [ -76.9402416, 38.5962373 ] } },
{ "type": "Feature", "properties": { "name": "Nova Patient Care", "place_id": "ChIJU73yJRSut4kRIH4ihKiD3fI", "rating": 3.5 }, "geometry": { "type": "Point", "coordinates": [ -77.0825265, 38.7519509 ] } },
{ "type": "Feature", "properties": { "name": "Medical Access Primary Care", "place_id": "ChIJN3UfY6Ktt4kRpqwH9aTFR9E", "rating": 3.7 }, "geometry": { "type": "Point", "coordinates": [ -77.1401506, 38.7526953 ] } },
{ "type": "Feature", "properties": { "name": "Millennium Total Health & Fitness", "place_id": "ChIJoa3bpnCvt4kRWZB3Qd8pJnc", "rating": 4.2 }, "geometry": { "type": "Point", "coordinates": [ -77.0770134, 38.7371385 ] } },
{ "type": "Feature", "properties": { "name": "NOVA Patient Care Kingstowne Alexandria", "place_id": "ChIJUb59w3utt4kRw_46adMNLFQ", "rating": 4.5 }, "geometry": { "type": "Point", "coordinates": [ -77.1368345, 38.7725313 ] } },
{ "type": "Feature", "properties": { "name": "McLaren Health Clinic", "place_id": "ChIJoZdTfFCtt4kR8G7ZlI1twec", "rating": 4.3 }, "geometry": { "type": "Point", "coordinates": [ -77.1836876, 38.7709659 ] } },
{ "type": "Feature", "properties": { "name": "Rudy Juburi, MD", "place_id": "ChIJN77BCJipt4kR5JoY4MektwQ", "rating": 4.3 }, "geometry": { "type": "Point", "coordinates": [ -76.8991929, 38.6045247 ] } },
{ "type": "Feature", "properties": { "name": "PM Kidz", "place_id": "ChIJlUwSi92ht4kREPsQcihsFH0", "rating": 4.2 }, "geometry": { "type": "Point", "coordinates": [ -76.901452, 38.6053296 ] } },
{ "type": "Feature", "properties": { "name": "AllCare Family Medicine & Urgent Care", "place_id": "ChIJrwRv9cext4kRQBulw-SirKc", "rating": 4.6 }, "geometry": { "type": "Point", "coordinates": [ -77.069451, 38.786635 ] } },
{ "type": "Feature", "properties": { "name": "Patient First Primary and Urgent Care - Alexandria", "place_id": "ChIJFx3yccKxt4kRcimBTgOzcxI", "rating": 3.7 }, "geometry": { "type": "Point", "coordinates": [ -77.0779356, 38.7807747 ] } },
{ "type": "Feature", "properties": { "name": "AllCare Family Medicine and Urgent Care of Alexandria", "place_id": "ChIJ-_buPp6xt4kRbjzprweKhz8", "rating": 4.6 }, "geometry": { "type": "Point", "coordinates": [ -77.0836512, 38.8086559 ] } },
{ "type": "Feature", "properties": { "name": "NOVA Patient Care | Crystal City, Arlington", "place_id": "ChIJ9-XSoTmxt4kRtlT2AsozNaw", "rating": 5.0 }, "geometry": { "type": "Point", "coordinates": [ -77.051038, 38.8437728 ] } },
{ "type": "Feature", "properties": { "name": "Eran Greenberg Urgent Care Alexandria", "place_id": "ChIJi7mE9_uwt4kRZhRWn8c0GB4", "rating": 3.8 }, "geometry": { "type": "Point", "coordinates": [ -77.0505365, 38.8109246 ] } },
{ "type": "Feature", "properties": { "name": "NOVA Patient Care | Old town Alexandria", "place_id": "ChIJaxhE9_uwt4kRPwKPqRtab1o", "rating": 3.7 }, "geometry": { "type": "Point", "coordinates": [ -77.0503849, 38.8108836 ] } },
{ "type": "Feature", "properties": { "name": "MinuteClinic at CVS", "place_id": "ChIJi8bUf9Kxt4kRXfBUMBQjoqs", "rating": 2.7 }, "geometry": { "type": "Point", "coordinates": [ -77.061933, 38.7765495 ] } },
{ "type": "Feature", "properties": { "name": "Arlington VA Immediate Care", "place_id": "ChIJr29eW6O3t4kRmrxmPYDZDvY", "rating": 3.5 }, "geometry": { "type": "Point", "coordinates": [ -77.0560281, 38.8605162 ] } },
{ "type": "Feature", "properties": { "name": "Xpress Care Urgent Care", "place_id": "ChIJm7Megie3t4kRCxovF8l9rMs", "rating": 2.6 }, "geometry": { "type": "Point", "coordinates": [ -77.0560944, 38.8604972 ] } },
{ "type": "Feature", "properties": { "name": "PACS Urgent Care Alexandria VA", "place_id": "ChIJRQyZim-zt4kRoNvfPyoJGzM", "rating": 4.8 }, "geometry": { "type": "Point", "coordinates": [ -77.1076939, 38.8413502 ] } },
{ "type": "Feature", "properties": { "name": "Inova - GoHealth Urgent Care", "place_id": "ChIJ7T3V6jq0t4kRez7pfgNBbpM", "rating": 3.3 }, "geometry": { "type": "Point", "coordinates": [ -77.1199805, 38.8983002 ] } },
{ "type": "Feature", "properties": { "name": "Xcel Urgent Care", "place_id": "ChIJkxUs8tuzt4kRkapwWB-D3pU", "rating": 4.3 }, "geometry": { "type": "Point", "coordinates": [ -77.117307, 38.847958 ] } },
{ "type": "Feature", "properties": { "name": "Vista Medical Center - Crystal City", "place_id": "ChIJiZNthtSwt4kR_ZEisIGynsM", "rating": 4.3 }, "geometry": { "type": "Point", "coordinates": [ -77.050743, 38.853137 ] } },
{ "type": "Feature", "properties": { "name": "Dominion Urgent Care", "place_id": "ChIJG9XT0quyt4kRlF5dMd_rYm0", "rating": 3.4 }, "geometry": { "type": "Point", "coordinates": [ -77.1896094, 38.7822893 ] } },
{ "type": "Feature", "properties": { "name": "MedStar Health: Urgent Care at Adams Morgan", "place_id": "ChIJIxYqitm3t4kRTFqsKOD_wfQ", "rating": 3.9 }, "geometry": { "type": "Point", "coordinates": [ -77.0432107, 38.9226318 ] } },
{ "type": "Feature", "properties": { "name": "AllCare Family Medicine And Urgent Care of Arlington", "place_id": "ChIJufWeGnO3t4kRGN4A1NX4RSc", "rating": 4.5 }, "geometry": { "type": "Point", "coordinates": [ -77.0829249, 38.8914591 ] } },
{ "type": "Feature", "properties": { "name": "PMA Health and Immediate Care by PMA Health  Arlington", "place_id": "ChIJt4MQCYC3t4kRl1hJQpucveA", "rating": 4.1 }, "geometry": { "type": "Point", "coordinates": [ -77.0995371, 38.8839896 ] } },
{ "type": "Feature", "properties": { "name": "Alexandria Health Care Center", "place_id": "ChIJw4_XH-azt4kRNuklR_bIvhM", "rating": 2.3 }, "geometry": { "type": "Point", "coordinates": [ -77.1227336, 38.8132291 ] } },
{ "type": "Feature", "properties": { "name": "AllCare Family Medicine & Urgent Care", "place_id": "ChIJ5f6JMLO1t4kRg4b6nMDnimY", "rating": 4.5 }, "geometry": { "type": "Point", "coordinates": [ -77.1153469, 38.8825002 ] } },
{ "type": "Feature", "properties": { "name": "Old Dominion Urgent Care Center", "place_id": "ChIJZeBt7HS1t4kRY4HY_jJ17YE", "rating": 3.6 }, "geometry": { "type": "Point", "coordinates": [ -77.1523668, 38.9211586 ] } },
{ "type": "Feature", "properties": { "name": "Urgent Care Center of Arlington", "place_id": "ChIJ__-OTK21t4kRJpCOrfDQtZ0", "rating": 3.0 }, "geometry": { "type": "Point", "coordinates": [ -77.1380339, 38.8972889 ] } },
{ "type": "Feature", "properties": { "name": "District Urgent Care", "place_id": "ChIJw9UUfGDJt4kRE0xAFzLyOOQ", "rating": 3.9 }, "geometry": { "type": "Point", "coordinates": [ -77.0269976, 38.9499545 ] } },
{ "type": "Feature", "properties": { "name": "Maryland Primary and Urgent Care: Sherif Hassan, MD", "place_id": "ChIJE4RpDAPCt4kRPK7TAUDb_3g", "rating": 4.5 }, "geometry": { "type": "Point", "coordinates": [ -76.8351004, 38.9898674 ] } },
{ "type": "Feature", "properties": { "name": "Rapid Response Primary Care Clinic", "place_id": "ChIJc3HvFsLBt4kRBygV4futmZY", "rating": 3.1 }, "geometry": { "type": "Point", "coordinates": [ -76.8423117, 38.9653628 ] } },
{ "type": "Feature", "properties": { "name": "PM Pediatric Urgent Care", "place_id": "ChIJkdITIhPdt4kRWkFj2zyV0lg", "rating": 4.1 }, "geometry": { "type": "Point", "coordinates": [ -76.8507897, 39.0977799 ] } },
{ "type": "Feature", "properties": { "name": "Patient First Primary and Urgent Care - Columbia", "place_id": "ChIJVa9D-xDft4kRXs4mCdzxmVc", "rating": 4.1 }, "geometry": { "type": "Point", "coordinates": [ -76.8873837, 39.2092756 ] } },
{ "type": "Feature", "properties": { "name": "Oluwapelumi O Fakeye, M.D.", "place_id": "ChIJq2QZoeMcyIkRmOXU8snhMPY", "rating": 5.0 }, "geometry": { "type": "Point", "coordinates": [ -76.6734818, 39.2575822 ] } },
{ "type": "Feature", "properties": { "name": "MedStar Health: Pediatrics at MedStar Harbor Hospital", "place_id": "ChIJC1VJAtgDyIkREWrQ-EINGZ8", "rating": 4.8 }, "geometry": { "type": "Point", "coordinates": [ -76.6140329, 39.2518501 ] } },
{ "type": "Feature", "properties": { "name": "Total Health Care - Westside Health Center", "place_id": "ChIJuWjAIaUcyIkRCYtjWKPSkmI", "rating": 2.7 }, "geometry": { "type": "Point", "coordinates": [ -76.6545251, 39.2812491 ] } },
{ "type": "Feature", "properties": { "name": "MedStar Health: Primary Care at Federal Hill", "place_id": "ChIJwRrc8MgDyIkR2xEpaKxl25Q", "rating": 4.8 }, "geometry": { "type": "Point", "coordinates": [ -76.6016659, 39.2729123 ] } },
{ "type": "Feature", "properties": { "name": "Tuerk House Urgent Care", "place_id": "ChIJW3_Dge8byIkRZOpgrW3Cb9c", "rating": 5.0 }, "geometry": { "type": "Point", "coordinates": [ -76.6618748, 39.2967771 ] } },
{ "type": "Feature", "properties": { "name": "EBMC Care Plus Center", "place_id": "ChIJoafaJ4wEyIkRdUO6DvoKb2Q", "rating": 5.0 }, "geometry": { "type": "Point", "coordinates": [ -76.6029608, 39.3019996 ] } },
{ "type": "Feature", "properties": { "name": "Eutaw Medical Center", "place_id": "ChIJRceHt8sEyIkR5SQ2OoDUbz4", "rating": 3.9 }, "geometry": { "type": "Point", "coordinates": [ -76.6371657, 39.314084 ] } },
{ "type": "Feature", "properties": { "name": "ExpressCare at Sinai Hospital", "place_id": "ChIJ30aCJhobyIkRDbt_GEcfZfg", "rating": 4.1 }, "geometry": { "type": "Point", "coordinates": [ -76.6598973, 39.351167 ] } },
{ "type": "Feature", "properties": { "name": "MinuteClinic", "place_id": "ChIJXdZR9TwFyIkRXmx1LDR-kao", "rating": 1.8 }, "geometry": { "type": "Point", "coordinates": [ -76.6081711, 39.2960617 ] } },
{ "type": "Feature", "properties": { "name": "Life Bridge Health Walk-In Medical Care Center", "place_id": "ChIJVXSZD8EayIkRifhH852xxdc", "rating": 2.0 }, "geometry": { "type": "Point", "coordinates": [ -76.6609042, 39.3512527 ] } },
{ "type": "Feature", "properties": { "name": "Medstar Health", "place_id": "ChIJha7VKx4FyIkRYZFR5cO0yh8", "rating": 4.7 }, "geometry": { "type": "Point", "coordinates": [ -76.6144672, 39.3291949 ] } },
{ "type": "Feature", "properties": { "name": "Pediatric Outpatient Care", "place_id": "ChIJ93_RT5cPyIkREe_7-tc9qLs", "rating": 2.0 }, "geometry": { "type": "Point", "coordinates": [ -76.6077071, 39.3645537 ] } },
{ "type": "Feature", "properties": { "name": "METRO XTRACARE PC", "place_id": "ChIJke5MraIZyIkRYSwjbzwXoJQ", "rating": 4.3 }, "geometry": { "type": "Point", "coordinates": [ -76.7579469, 39.3552618 ] } },
{ "type": "Feature", "properties": { "name": "Lifeline Urgent Care", "place_id": "ChIJ1dpnNLIZyIkRE8sAzJtwb7s", "rating": 2.8 }, "geometry": { "type": "Point", "coordinates": [ -76.7751893, 39.3595804 ] } },
{ "type": "Feature", "properties": { "name": "AllCare Family Medicine and Urgent Care of Pikesville", "place_id": "ChIJda5gI1EXyIkRKd7YTvo-80k", "rating": 4.4 }, "geometry": { "type": "Point", "coordinates": [ -76.7506623, 39.3975833 ] } },
{ "type": "Feature", "properties": { "name": "WellSpan Urgent Care", "place_id": "ChIJvZXBqKNkyIkR3waD-lDWjjY", "rating": 3.5 }, "geometry": { "type": "Point", "coordinates": [ -76.6716061, 39.7690147 ] } },
{ "type": "Feature", "properties": { "name": "Patriot Urgent Care - Reisterstown", "place_id": "ChIJeYX5d7sXyIkRutNUEbng49Q", "rating": 4.7 }, "geometry": { "type": "Point", "coordinates": [ -76.8123933, 39.4451902 ] } },
{ "type": "Feature", "properties": { "name": "Patient First Primary and Urgent Care - Owings Mills", "place_id": "ChIJW7n4LwkXyIkRN8rqLOhmtgU", "rating": 4.2 }, "geometry": { "type": "Point", "coordinates": [ -76.7747182, 39.4150967 ] } },
{ "type": "Feature", "properties": { "name": "24\/7 TLC Community Care Clinic", "place_id": "ChIJIT1OD0Agt4kRD3gCDtN0wMg", "rating": 1.7 }, "geometry": { "type": "Point", "coordinates": [ -77.2120674, 38.2787428 ] } },
{ "type": "Feature", "properties": { "name": "Velocity Urgent Care | Woodbridge", "place_id": "ChIJ8XpxIYFXtokRcI5j061D_bA", "rating": 4.5 }, "geometry": { "type": "Point", "coordinates": [ -77.2955192, 38.5989242 ] } },
{ "type": "Feature", "properties": { "name": "NextCare Urgent Care", "place_id": "ChIJrdMdEwf5tokRgE4HRCElHm0", "rating": 4.6 }, "geometry": { "type": "Point", "coordinates": [ -77.3305846, 38.5829336 ] } },
{ "type": "Feature", "properties": { "name": "Urgent Medical Care", "place_id": "ChIJAVPLcRj5tokRaZHpqijjAfE", "rating": 3.8 }, "geometry": { "type": "Point", "coordinates": [ -77.3090949, 38.5790886 ] } },
{ "type": "Feature", "properties": { "name": "MinuteClinic at CVS", "place_id": "ChIJy2gw7N74tokRJY2fOna8sRw", "rating": 2.0 }, "geometry": { "type": "Point", "coordinates": [ -77.3057294, 38.5890292 ] } },
{ "type": "Feature", "properties": { "name": "Dumfries Health Center", "place_id": "ChIJ607XCgb5tokRh0kmHzQCdF8", "rating": 2.6 }, "geometry": { "type": "Point", "coordinates": [ -77.3269076, 38.5793145 ] } },
{ "type": "Feature", "properties": { "name": "Civista Medical Center Er", "place_id": "ChIJL0cYbucIt4kRJsTbtlFavxE", "rating": 1.0 }, "geometry": { "type": "Point", "coordinates": [ -76.9724071, 38.52906 ] } },
{ "type": "Feature", "properties": { "name": "Inova Emergency Room - HealthPlex Franconia\/Springfield", "place_id": "ChIJ8wl9N2Wtt4kRv77G4NwzyIo", "rating": 4.0 }, "geometry": { "type": "Point", "coordinates": [ -77.1607749, 38.7672035 ] } },
{ "type": "Feature", "properties": { "name": "Inova Primary Care - Springfield", "place_id": "ChIJ8wl9N2Wtt4kRHRuk2u-53Jw", "rating": 2.3 }, "geometry": { "type": "Point", "coordinates": [ -77.1607569, 38.7672049 ] } },
{ "type": "Feature", "properties": { "name": "NOVA Patient Care Falls Church", "place_id": "ChIJudtTn4mzt4kRRlUL7zwL0Io", "rating": 4.2 }, "geometry": { "type": "Point", "coordinates": [ -77.1347194, 38.848638 ] } },
{ "type": "Feature", "properties": { "name": "Express Healthcare - Skyline", "place_id": "ChIJ-Q3teImzt4kRDuZN8AdgTso", "rating": 3.8 }, "geometry": { "type": "Point", "coordinates": [ -77.133223, 38.8528531 ] } },
{ "type": "Feature", "properties": { "name": "GW Immediate & Primary Care - McPherson Square", "place_id": "ChIJ3fEV0L-3t4kRRofn0Yw-Cqo", "rating": 2.4 }, "geometry": { "type": "Point", "coordinates": [ -77.0342133, 38.904025 ] } },
{ "type": "Feature", "properties": { "name": "Kaiser Permanente Largo Medical Center", "place_id": "ChIJWZrkNwbAt4kRE-vyFZ-UabE", "rating": 4.5 }, "geometry": { "type": "Point", "coordinates": [ -76.835541, 38.9069948 ] } },
{ "type": "Feature", "properties": { "name": "MinuteClinic at CVS", "place_id": "ChIJrW3aQwfBt4kRwRKod-TWSWI", "rating": 2.1 }, "geometry": { "type": "Point", "coordinates": [ -76.8723663, 38.9550364 ] } },
{ "type": "Feature", "properties": { "name": "Med-Ped Health Care, LLC", "place_id": "ChIJdxtb0-LDt4kRSYCA78rP368", "rating": 2.7 }, "geometry": { "type": "Point", "coordinates": [ -76.9065054, 38.9966411 ] } },
{ "type": "Feature", "properties": { "name": "Quality First Urgent Care", "place_id": "ChIJcfSGyXHbt4kREpHHErl-UZQ", "rating": 4.8 }, "geometry": { "type": "Point", "coordinates": [ -76.9334685, 39.1129856 ] } },
{ "type": "Feature", "properties": { "name": "Prosperity Clinic", "place_id": "ChIJtxfMULndt4kRgiH70M3_i1Q", "rating": 4.7 }, "geometry": { "type": "Point", "coordinates": [ -76.8652409, 39.0810498 ] } },
{ "type": "Feature", "properties": { "name": "Briggs Chaney Walk-in Clinic", "place_id": "ChIJXUFIkDTbt4kRrDfNY7OHauA", "rating": 4.5 }, "geometry": { "type": "Point", "coordinates": [ -76.9455557, 39.0821908 ] } },
{ "type": "Feature", "properties": { "name": "Concentra Urgent Care", "place_id": "ChIJcdC_LoDgt4kRfPM9NJ9-Zf8", "rating": 4.3 }, "geometry": { "type": "Point", "coordinates": [ -76.8250169, 39.1873333 ] } },
{ "type": "Feature", "properties": { "name": "PM Pediatric Urgent Care", "place_id": "ChIJc2Y8hGXgt4kRCHkM7KBl48I", "rating": 3.9 }, "geometry": { "type": "Point", "coordinates": [ -76.7963847, 39.1877869 ] } },
{ "type": "Feature", "properties": { "name": "FirstCall Medical Center", "place_id": "ChIJr3JGCp_et4kRoq35i0nGCeo", "rating": 3.8 }, "geometry": { "type": "Point", "coordinates": [ -76.894705, 39.1588399 ] } },
{ "type": "Feature", "properties": { "name": "Kimbrough Ambulatory Care", "place_id": "ChIJQblPG4Dmt4kR4cKbvJLMbTc", "rating": 2.0 }, "geometry": { "type": "Point", "coordinates": [ -76.7290666, 39.0980657 ] } },
{ "type": "Feature", "properties": { "name": "Quality First Urgent Care", "place_id": "ChIJVy0ec-HYt4kRBJfTcn8zol0", "rating": 4.8 }, "geometry": { "type": "Point", "coordinates": [ -76.9456998, 39.206451 ] } },
{ "type": "Feature", "properties": { "name": "MinuteClinic at CVS", "place_id": "ChIJxZ7P8lngt4kRHJwiD09xgbM", "rating": 2.3 }, "geometry": { "type": "Point", "coordinates": [ -76.7941895, 39.1924693 ] } },
{ "type": "Feature", "properties": { "name": "AllCare Family Medicine and Urgent Care of Ellicott City", "place_id": "ChIJ2-P_h9EhyIkRi_JqvtbKWys", "rating": 4.5 }, "geometry": { "type": "Point", "coordinates": [ -76.8357424, 39.2781477 ] } },
{ "type": "Feature", "properties": { "name": "Patrick Reid Smith, M.D. | Kaiser Permanente", "place_id": "ChIJVQ4srMwdyIkRl6NOId-I7Vo", "rating": 5.0 }, "geometry": { "type": "Point", "coordinates": [ -76.6735761, 39.2576486 ] } },
{ "type": "Feature", "properties": { "name": "1st Medical Of Annapolis Inc.\/Zuniga Primary Care", "place_id": "ChIJPXpgwyUcyIkRPWYXGQ1KzAA", "rating": 3.0 }, "geometry": { "type": "Point", "coordinates": [ -76.727249, 39.271919 ] } },
{ "type": "Feature", "properties": { "name": "Adeola A Jolayemi, M.D. | Kaiser Permanente", "place_id": "ChIJq2QZoeMcyIkR6yJmQu5MG_E", "rating": 5.0 }, "geometry": { "type": "Point", "coordinates": [ -76.6734818, 39.2575822 ] } },
{ "type": "Feature", "properties": { "name": "Total Health Care - Mondawmin Mall Health Center", "place_id": "ChIJmx9DmTkbyIkRC6zuzVbTL_E", "rating": 3.8 }, "geometry": { "type": "Point", "coordinates": [ -76.6539348, 39.3173802 ] } },
{ "type": "Feature", "properties": { "name": "Xpress Pediatrics, Urgent Care for Children and Families", "place_id": "ChIJKytdxvQbyIkRo4SDVr3GBZE", "rating": 4.9 }, "geometry": { "type": "Point", "coordinates": [ -76.7244712, 39.3769977 ] } },
{ "type": "Feature", "properties": { "name": "A Clean Start Urgent Care", "place_id": "ChIJq6raBPoZyIkRpjcMVAA1EGs", "rating": 4.1 }, "geometry": { "type": "Point", "coordinates": [ -76.7399197, 39.3744464 ] } },
{ "type": "Feature", "properties": { "name": "PM Pediatric Urgent Care", "place_id": "ChIJZcFAKz4OyIkRRYdQ5TMuI2Q", "rating": 4.6 }, "geometry": { "type": "Point", "coordinates": [ -76.6211263, 39.4310955 ] } },
{ "type": "Feature", "properties": { "name": "ExpressCare Urgent Care Center", "place_id": "ChIJw-IcOYFByIkRwcJhGAqdueg", "rating": 3.5 }, "geometry": { "type": "Point", "coordinates": [ -76.8670887, 39.6393119 ] } },
{ "type": "Feature", "properties": { "name": "ExpressCare Urgent Care Center", "place_id": "ChIJJYhDeyE5yIkRSdKdQdm9qQs", "rating": 3.6 }, "geometry": { "type": "Point", "coordinates": [ -76.9615554, 39.5560951 ] } },
{ "type": "Feature", "properties": { "name": "Primary and Urgent Care", "place_id": "ChIJg0OOUQfutokRdUgaLp1VktE", "rating": 4.5 }, "geometry": { "type": "Point", "coordinates": [ -77.416494, 38.4730662 ] } },
{ "type": "Feature", "properties": { "name": "NextCare Urgent Care", "place_id": "ChIJgdc7wdXptokRd0Fipvq3h5w", "rating": 4.5 }, "geometry": { "type": "Point", "coordinates": [ -77.4275047, 38.3107838 ] } },
{ "type": "Feature", "properties": { "name": "Stafford Urgent Care & Stafford Primary Care", "place_id": "ChIJx7jxHSrutokRBocAEnB6cL0", "rating": 3.0 }, "geometry": { "type": "Point", "coordinates": [ -77.4283321, 38.4762003 ] } },
{ "type": "Feature", "properties": { "name": "Garrisonville Urgent Care", "place_id": "ChIJfSMlyynutokRfBkuwMIdxEY", "rating": 4.0 }, "geometry": { "type": "Point", "coordinates": [ -77.4331372, 38.4747109 ] } },
{ "type": "Feature", "properties": { "name": "NextCare Urgent Care", "place_id": "ChIJc2Mh2EbqtokR3oWhdIL5RM4", "rating": 4.5 }, "geometry": { "type": "Point", "coordinates": [ -77.4960599, 38.34461 ] } },
{ "type": "Feature", "properties": { "name": "Mary Washington Urgent Care", "place_id": "ChIJTUCkC_7rtokRI9OuadNpX7o", "rating": 3.5 }, "geometry": { "type": "Point", "coordinates": [ -77.5225143, 38.3652076 ] } },
{ "type": "Feature", "properties": { "name": "Patient First Primary and Urgent Care - Fredericksburg", "place_id": "ChIJo5hXubXBtokR6fUvJymz9WM", "rating": 4.1 }, "geometry": { "type": "Point", "coordinates": [ -77.5130706, 38.296696 ] } },
{ "type": "Feature", "properties": { "name": "NextCare Urgent Care", "place_id": "ChIJ3yAgC4W_tokRn6rSswbAT6E", "rating": 4.6 }, "geometry": { "type": "Point", "coordinates": [ -77.570706, 38.29233 ] } },
{ "type": "Feature", "properties": { "name": "Primary & Urgent Care", "place_id": "ChIJe_pRlG7BtokRjrkjpQeUrdo", "rating": 3.6 }, "geometry": { "type": "Point", "coordinates": [ -77.5071638, 38.2357194 ] } },
{ "type": "Feature", "properties": { "name": "CareNow Urgent Care - Spotsylvania", "place_id": "ChIJ6VtXOi3BtokRoFTc1V3p7rw", "rating": 4.6 }, "geometry": { "type": "Point", "coordinates": [ -77.5059856, 38.2371688 ] } },
{ "type": "Feature", "properties": { "name": "Prime Care Urgent & Family Care", "place_id": "ChIJs1jUslfHtokRhEB3D3m_rFY", "rating": 3.9 }, "geometry": { "type": "Point", "coordinates": [ -77.5597512, 38.2323416 ] } },
{ "type": "Feature", "properties": { "name": "Primary & Urgent Care", "place_id": "ChIJPYjiCl3AtokRmq52pf0VY2I", "rating": 2.0 }, "geometry": { "type": "Point", "coordinates": [ -77.4985617, 38.295886 ] } },
{ "type": "Feature", "properties": { "name": "CareNow Urgent Care - Fredericksburg", "place_id": "ChIJy-NxzSzBtokREntbiXSsbBE", "rating": 4.7 }, "geometry": { "type": "Point", "coordinates": [ -77.5451418, 38.2898333 ] } },
{ "type": "Feature", "properties": { "name": "PACS Urgent Care Ruther Glen VA", "place_id": "ChIJb6LnPRUzsYkRQA2tRk3DIiA", "rating": 4.7 }, "geometry": { "type": "Point", "coordinates": [ -77.4570899, 37.9451058 ] } },
{ "type": "Feature", "properties": { "name": "Centercare Urgent Care & Pedsplus Pediatrics Locust Grove", "place_id": "ChIJL-YZdvmZtokRHsfO7pha4V0", "rating": 4.3 }, "geometry": { "type": "Point", "coordinates": [ -77.746382, 38.3472357 ] } },
{ "type": "Feature", "properties": { "name": "UrgentCare Travel Clinic", "place_id": "ChIJgdS8Y38zsYkRRoSLzhXP0_I", "rating": 3.0 }, "geometry": { "type": "Point", "coordinates": [ -77.4664942, 37.9391889 ] } },
{ "type": "Feature", "properties": { "name": "Medical Imaging of King George", "place_id": "ChIJjzQ0IZ8ht4kRZpalLkGX8bM", "rating": 3.0 }, "geometry": { "type": "Point", "coordinates": [ -77.1707802, 38.2602016 ] } },
{ "type": "Feature", "properties": { "name": "Woodbridge Urgent Care", "place_id": "ChIJtW4gtCNVtokRKZVAw_9McSo", "rating": 5.0 }, "geometry": { "type": "Point", "coordinates": [ -77.265323, 38.675569 ] } },
{ "type": "Feature", "properties": { "name": "Dr. Al Family and Urgent Care", "place_id": "ChIJ15Su9vlVtokR_68D-M03dtY", "rating": 4.3 }, "geometry": { "type": "Point", "coordinates": [ -77.2760081, 38.6287809 ] } },
{ "type": "Feature", "properties": { "name": "US Primary & Urgent Care", "place_id": "ChIJ_a4j3kVUtokROTTlr6ZTXLE", "rating": 4.3 }, "geometry": { "type": "Point", "coordinates": [ -77.2576086, 38.6750874 ] } },
{ "type": "Feature", "properties": { "name": "Patient First Primary and Urgent Care - Lake Ridge", "place_id": "ChIJpSETvyVUtokRVSflkVYKbRs", "rating": 3.8 }, "geometry": { "type": "Point", "coordinates": [ -77.2793312, 38.6774331 ] } },
{ "type": "Feature", "properties": { "name": "Medical Access Primary Care", "place_id": "ChIJl9we1e1VtokR8NVbsof8v1Q", "rating": 4.2 }, "geometry": { "type": "Point", "coordinates": [ -77.2690664, 38.6361206 ] } },
{ "type": "Feature", "properties": { "name": "Children's National Med Center", "place_id": "ChIJ5XPXCPpVtokRDaQ_QtQH7Ek", "rating": 5.0 }, "geometry": { "type": "Point", "coordinates": [ -77.2752487, 38.6298157 ] } },
{ "type": "Feature", "properties": { "name": "Inova - GoHealth Urgent Care", "place_id": "ChIJ-f7-aYFStokRZQfiJxr3CeQ", "rating": 3.5 }, "geometry": { "type": "Point", "coordinates": [ -77.2359654, 38.7808485 ] } },
{ "type": "Feature", "properties": { "name": "NextCare Urgent Care", "place_id": "ChIJ7xhP4nNXtokRUU70S3kcYI4", "rating": 4.3 }, "geometry": { "type": "Point", "coordinates": [ -77.360801, 38.680848 ] } },
{ "type": "Feature", "properties": { "name": "AllCare Family Medicine and Urgent Care of Woodbridge", "place_id": "ChIJofLFzQFXtokRYtw1ZXmYj4Y", "rating": 4.5 }, "geometry": { "type": "Point", "coordinates": [ -77.3330431, 38.6741179 ] } },
{ "type": "Feature", "properties": { "name": "Advanced Urgent Care | Kaiser Permanente Caton Hill Medical Center", "place_id": "ChIJXV2hqCVXtokRJiYvC4NIjPw", "rating": 1.8 }, "geometry": { "type": "Point", "coordinates": [ -77.2975253, 38.6594335 ] } },
{ "type": "Feature", "properties": { "name": "Saratoga Urgent Care", "place_id": "ChIJe_rHFEFTtokRUhWaMuJvclQ", "rating": 3.8 }, "geometry": { "type": "Point", "coordinates": [ -77.2109648, 38.7440853 ] } },
{ "type": "Feature", "properties": { "name": "Dalewood Medical Center", "place_id": "ChIJleespc1XtokRTNXbirGdsKo", "rating": 3.3 }, "geometry": { "type": "Point", "coordinates": [ -77.3351614, 38.6436341 ] } },
{ "type": "Feature", "properties": { "name": "Easy Care Primary & Urgent Care", "place_id": "ChIJMW8h_o1XtokRmaF8TeF1Lmk", "rating": 3.8 }, "geometry": { "type": "Point", "coordinates": [ -77.3676648, 38.6618518 ] } },
{ "type": "Feature", "properties": { "name": "PM Pediatric Urgent Care", "place_id": "ChIJoxMuDKpXtokRAcGksq8Eto4", "rating": 3.7 }, "geometry": { "type": "Point", "coordinates": [ -77.2939837, 38.651949 ] } },
{ "type": "Feature", "properties": { "name": "AllCare Family Medicine & Urgent Care of Burke", "place_id": "ChIJy0f-r8NRtokRcZ4MZ672HVQ", "rating": 4.4 }, "geometry": { "type": "Point", "coordinates": [ -77.2986066, 38.786919 ] } },
{ "type": "Feature", "properties": { "name": "NOVA Patient Care Woodbridge", "place_id": "ChIJK6hPFm5XtokRPqC37G7P2tM", "rating": 4.6 }, "geometry": { "type": "Point", "coordinates": [ -77.3060169, 38.6530589 ] } },
{ "type": "Feature", "properties": { "name": "Virginia Urgent & Primary Care, LLC", "place_id": "ChIJ4-H4fciyt4kRU6UdA0mlYU0", "rating": 3.8 }, "geometry": { "type": "Point", "coordinates": [ -77.1838177, 38.8016523 ] } },
{ "type": "Feature", "properties": { "name": "Concentra Urgent Care", "place_id": "ChIJgVk7AO2yt4kR1OcxcJaaVIs", "rating": 3.3 }, "geometry": { "type": "Point", "coordinates": [ -77.1633232, 38.7997972 ] } },
{ "type": "Feature", "properties": { "name": "Immediate Care by PMA Health  Falls Church", "place_id": "ChIJ7cj2M9q1t4kR-aCdA2mwTgU", "rating": 4.8 }, "geometry": { "type": "Point", "coordinates": [ -77.1734547, 38.88115 ] } },
{ "type": "Feature", "properties": { "name": "AllCare Family Medicine & Urgent Care", "place_id": "ChIJhaxWTV-1t4kRpvij2FnOuXA", "rating": 4.5 }, "geometry": { "type": "Point", "coordinates": [ -77.1531723, 38.8726167 ] } },
{ "type": "Feature", "properties": { "name": "1st Medical of Annapolis", "place_id": "ChIJW8shEUu6t4kRkxQ0QL_wruM", "rating": 4.5 }, "geometry": { "type": "Point", "coordinates": [ -76.9661754, 38.8119605 ] } },
{ "type": "Feature", "properties": { "name": "Walker Mill Health Center", "place_id": "ChIJo4SWTeC-t4kRBWgmJMw9gR0", "rating": 5.0 }, "geometry": { "type": "Point", "coordinates": [ -76.892471, 38.8690526 ] } },
{ "type": "Feature", "properties": { "name": "Unity Health Care - Parkside Health Center", "place_id": "ChIJ0_Tk-JO4t4kR-_Sz8PqUBvk", "rating": 3.9 }, "geometry": { "type": "Point", "coordinates": [ -76.9473635, 38.9003198 ] } },
{ "type": "Feature", "properties": { "name": "Lotus Primary Care Clinic", "place_id": "ChIJe8BGlS3Gt4kROGCJVUn42i4", "rating": 4.5 }, "geometry": { "type": "Point", "coordinates": [ -76.9612295, 38.9550047 ] } },
{ "type": "Feature", "properties": { "name": "Unity Health Care - Minnesota Avenue Health Center", "place_id": "ChIJreWSCe24t4kRiDSHECufGTs", "rating": 3.0 }, "geometry": { "type": "Point", "coordinates": [ -76.9499858, 38.894299 ] } },
{ "type": "Feature", "properties": { "name": "MinuteClinic at CVS", "place_id": "ChIJIRcrH2q4t4kRLCz6-ge8nvQ", "rating": 4.1 }, "geometry": { "type": "Point", "coordinates": [ -76.9820827, 38.9012797 ] } },
{ "type": "Feature", "properties": { "name": "Express Healthcare - College Park", "place_id": "ChIJQ7gwcxnHt4kR5godhFFbRS4", "rating": 3.1 }, "geometry": { "type": "Point", "coordinates": [ -76.9331119, 38.9902785 ] } },
{ "type": "Feature", "properties": { "name": "Injury Care Centers Inc. Urgent Chiropractic Care", "place_id": "ChIJvw0O6uLBt4kRm7rUfjX6hwo", "rating": 5.0 }, "geometry": { "type": "Point", "coordinates": [ -76.8636731, 38.9596157 ] } },
{ "type": "Feature", "properties": { "name": "higi", "place_id": "ChIJdbdI-TzBt4kRHZ2C1QgxSwo", "rating": 5.0 }, "geometry": { "type": "Point", "coordinates": [ -76.8984693, 38.9649862 ] } },
{ "type": "Feature", "properties": { "name": "Akachi Primary And Urgent Care LLC", "place_id": "ChIJO9yr3HfDt4kRSeFseHijfGU", "rating": 4.6 }, "geometry": { "type": "Point", "coordinates": [ -76.9003868, 38.9977456 ] } },
{ "type": "Feature", "properties": { "name": "PM Pediatric Urgent Care", "place_id": "ChIJizt3rNfDt4kR4H1Gl-HZnAg", "rating": 4.6 }, "geometry": { "type": "Point", "coordinates": [ -76.880992, 38.9935569 ] } },
{ "type": "Feature", "properties": { "name": "Express Healthcare - Eman Al-Samrrai, M.D.", "place_id": "ChIJdxtb0-LDt4kRBIDteg3WTSI", "rating": 1.0 }, "geometry": { "type": "Point", "coordinates": [ -76.9066513, 38.9966933 ] } },
{ "type": "Feature", "properties": { "name": "Family's Health Care", "place_id": "ChIJp4F_cQPHt4kRyA2cw_tj0ZU", "rating": 3.4 }, "geometry": { "type": "Point", "coordinates": [ -76.986853, 38.991718 ] } },
{ "type": "Feature", "properties": { "name": "Allegis Healthcare", "place_id": "ChIJAcHXWgnDt4kRasRVn442szY", "rating": 5.0 }, "geometry": { "type": "Point", "coordinates": [ -76.906728, 38.9964147 ] } },
{ "type": "Feature", "properties": { "name": "Advanced Walk-in Urgent Care", "place_id": "ChIJWVy4q4_Ft4kR90_4WAIUnqY", "rating": 4.7 }, "geometry": { "type": "Point", "coordinates": [ -77.001764, 39.033825 ] } },
{ "type": "Feature", "properties": { "name": "MedStar Health: Urgent Care at Wheaton", "place_id": "ChIJO9S3-KnPt4kRNmdHdx-dBE8", "rating": 4.1 }, "geometry": { "type": "Point", "coordinates": [ -77.0507421, 39.0518186 ] } },
{ "type": "Feature", "properties": { "name": "AllCare Family Medicine & Urgent Care", "place_id": "ChIJg5xbFU7Jt4kR-On4r-w_9mA", "rating": 4.8 }, "geometry": { "type": "Point", "coordinates": [ -77.0297293, 38.9956338 ] } },
{ "type": "Feature", "properties": { "name": "Patient First Primary and Urgent Care - Silver Spring", "place_id": "ChIJC4KP-MXIt4kRUb3klwDByxQ", "rating": 3.8 }, "geometry": { "type": "Point", "coordinates": [ -77.027269, 38.9918936 ] } },
{ "type": "Feature", "properties": { "name": "iCare Health Services: Eberechukwu Nwaogu, FNP-BC", "place_id": "ChIJC3BRWTbdt4kRtj7bGoNsBTQ", "rating": 4.9 }, "geometry": { "type": "Point", "coordinates": [ -76.8443532, 39.0885812 ] } },
{ "type": "Feature", "properties": { "name": "Fast Track Urgent Care", "place_id": "ChIJadzffFrFt4kRCaYqHx7NJbc", "rating": 4.7 }, "geometry": { "type": "Point", "coordinates": [ -77.0022967, 39.0768699 ] } },
{ "type": "Feature", "properties": { "name": "T&T Health and Wellness", "place_id": "ChIJi1YvyPLdt4kRrCLRqfwiFds", "rating": 5.0 }, "geometry": { "type": "Point", "coordinates": [ -76.8444207, 39.088676 ] } },
{ "type": "Feature", "properties": { "name": "AllCare Family Medicine & Primary Care of Fulton", "place_id": "ChIJ7wFOMxPdt4kRpHECqGsM45E", "rating": 5.0 }, "geometry": { "type": "Point", "coordinates": [ -76.9085291, 39.1490614 ] } },
{ "type": "Feature", "properties": { "name": "PM Pediatric Urgent Care", "place_id": "ChIJc2Y8hGXgt4kRCHkM7KBl48I", "rating": 3.9 }, "geometry": { "type": "Point", "coordinates": [ -76.7964564, 39.18778 ] } },
{ "type": "Feature", "properties": { "name": "Centennial Medical Group - Primary Care", "place_id": "ChIJxbssGFngt4kRTXtZqL6SSQk", "rating": 4.2 }, "geometry": { "type": "Point", "coordinates": [ -76.7953529, 39.1895174 ] } },
{ "type": "Feature", "properties": { "name": "Concentra Medical Center: Malik Komal A MD", "place_id": "ChIJcdC_LoDgt4kRuXtnYOM584E", "rating": 3.0 }, "geometry": { "type": "Point", "coordinates": [ -76.8250515, 39.1873048 ] } },
{ "type": "Feature", "properties": { "name": "FirstCall Medical Center", "place_id": "ChIJoxrsRcEhyIkRFrs6Q8KSQio", "rating": 3.5 }, "geometry": { "type": "Point", "coordinates": [ -76.8607001, 39.2799688 ] } },
{ "type": "Feature", "properties": { "name": "MinuteClinic at CVS", "place_id": "ChIJl5wwKo0fyIkRwArNYJTlP-U", "rating": 1.5 }, "geometry": { "type": "Point", "coordinates": [ -76.817494, 39.2500115 ] } },
{ "type": "Feature", "properties": { "name": "Ivana Paz, M.D. | Kaiser Permanente", "place_id": "ChIJq2QZoeMcyIkRwB5933lFHHA", "rating": 5.0 }, "geometry": { "type": "Point", "coordinates": [ -76.6734818, 39.2575822 ] } },
{ "type": "Feature", "properties": { "name": "Quick Care Clinic USA LLC", "place_id": "ChIJ1aJGdp0ZyIkR8DDO6I-y0uo", "rating": 5.0 }, "geometry": { "type": "Point", "coordinates": [ -76.7616437, 39.3553701 ] } },
{ "type": "Feature", "properties": { "name": "Access Family Clinic", "place_id": "ChIJJ6K5sz8ZyIkRl0sfHLEzBVk", "rating": 3.9 }, "geometry": { "type": "Point", "coordinates": [ -76.763685, 39.3421246 ] } },
{ "type": "Feature", "properties": { "name": "Jai Medical Center", "place_id": "ChIJv1Me6-AayIkRTy_C5FBycg4", "rating": 3.3 }, "geometry": { "type": "Point", "coordinates": [ -76.6659163, 39.3382648 ] } },
{ "type": "Feature", "properties": { "name": "Patient First", "place_id": "ChIJDUjls7URyIkRrwy3f4ogPVM", "rating": 5.0 }, "geometry": { "type": "Point", "coordinates": [ -76.6666287, 39.4197015 ] } },
{ "type": "Feature", "properties": { "name": "ExpressCare Urgent Care Center", "place_id": "ChIJ-Y63sswkyIkRdlN0RGexvak", "rating": 3.6 }, "geometry": { "type": "Point", "coordinates": [ -76.9498128, 39.4080193 ] } },
{ "type": "Feature", "properties": { "name": "U.N.I Urgent Care", "place_id": "ChIJz_eTQXA4yIkRa8mzrqhVDys", "rating": 3.9 }, "geometry": { "type": "Point", "coordinates": [ -76.9779652, 39.5647957 ] } },
{ "type": "Feature", "properties": { "name": "U.N.I. Urgent Care", "place_id": "ChIJ8yVZoz44yIkRCM7m-1KWlYw", "rating": 4.1 }, "geometry": { "type": "Point", "coordinates": [ -76.9924878, 39.5513922 ] } },
{ "type": "Feature", "properties": { "name": "Patient First Primary and Urgent Care - Stafford", "place_id": "ChIJg68rwtnvtokRfCQlOtRa5mI", "rating": 3.1 }, "geometry": { "type": "Point", "coordinates": [ -77.4123921, 38.4698494 ] } },