{
"type": "FeatureCollection",
"name": "ncr_webmd_2022_obgyn_points",
"crs": { "type": "name", "properties": { "name": "urn:ogc:def:crs:OGC:1.3:CRS84" } },
"features": [
{ "type": "Feature", "properties": { "ID": "l2", "address": "20925 Professional Plz, Ashburn, VA 20147", "doctors": 1 }, "geometry": { "type": "Point", "coordinates": [ -77.5046997, 39.0375484 ] } },
{ "type": "Feature", "properties": { "ID": "l3", "address": "4622 Broad Branch Rd NW, Washington, DC 20008", "doctors": 1 }, "geometry": { "type": "Point", "coordinates": [ -77.0534556, 38.9510209 ] } },
{ "type": "Feature", "properties": { "ID": "l5", "address": "12158 Central Ave, Mitchellville, MD 20721", "doctors": 8 }, "geometry": { "type": "Point", "coordinates": [ -76.7951191, 38.9009983 ] } },
{ "type": "Feature", "properties": { "ID": "l6", "address": "719 Chestertown St, Gaithersburg, MD 20878", "doctors": 1 }, "geometry": { "type": "Point", "coordinates": [ -77.241784, 39.123425 ] } },
{ "type": "Feature", "properties": { "ID": "l7", "address": "3430 Worthington Blvd Ste 202, Frederick, MD 21704", "doctors": 16 }, "geometry": { "type": "Point", "coordinates": [ -77.3470326, 39.3283765 ] } },
{ "type": "Feature", "properties": { "ID": "l8", "address": "1625 N George Mason Dr Ste 475, Arlington, VA 22205", "doctors": 18 }, "geometry": { "type": "Point", "coordinates": [ -77.1270458, 38.888604 ] } },
{ "type": "Feature", "properties": { "ID": "l9", "address": "8008 Westpark Dr, McLean, VA 22102", "doctors": 78 }, "geometry": { "type": "Point", "coordinates": [ -77.2244386, 38.929486 ] } },
{ "type": "Feature", "properties": { "ID": "l10", "address": "700 2nd St NE, Washington, DC 20002", "doctors": 109 }, "geometry": { "type": "Point", "coordinates": [ -77.0039961, 38.8995402 ] } },
{ "type": "Feature", "properties": { "ID": "l11", "address": "14139 Potomac Mills Rd, Woodbridge, VA 22192", "doctors": 11 }, "geometry": { "type": "Point", "coordinates": [ -77.2939287, 38.6383525 ] } },
{ "type": "Feature", "properties": { "ID": "l12", "address": "1800 Town Center Dr Ste 220, Reston, VA 20190", "doctors": 3 }, "geometry": { "type": "Point", "coordinates": [ -77.3645523, 38.9634017 ] } },
{ "type": "Feature", "properties": { "ID": "l13", "address": "3015 Williams Dr, Fairfax, VA 22031", "doctors": 5 }, "geometry": { "type": "Point", "coordinates": [ -77.2332406, 38.8684659 ] } },
{ "type": "Feature", "properties": { "ID": "l16", "address": "6845 Elm St Ste 600, McLean, VA 22101", "doctors": 7 }, "geometry": { "type": "Point", "coordinates": [ -77.1807901, 38.9363499 ] } },
{ "type": "Feature", "properties": { "ID": "l17", "address": "821 S King St Ste H, Leesburg, VA 20175", "doctors": 3 }, "geometry": { "type": "Point", "coordinates": [ -77.5718377, 39.1040016 ] } },
{ "type": "Feature", "properties": { "ID": "l18", "address": "19455 Deerfield Ave Ste 204, Leesburg, VA 20176", "doctors": 5 }, "geometry": { "type": "Point", "coordinates": [ -77.4773088, 39.0776082 ] } },
{ "type": "Feature", "properties": { "ID": "l20", "address": "2839 Duke St, Alexandria, VA 22314", "doctors": 2 }, "geometry": { "type": "Point", "coordinates": [ -77.0796054, 38.8077574 ] } },
{ "type": "Feature", "properties": { "ID": "l21", "address": "8957 Edmonston Rd Ste K, Greenbelt, MD 20770", "doctors": 1 }, "geometry": { "type": "Point", "coordinates": [ -76.9003867, 38.9977456 ] } },
{ "type": "Feature", "properties": { "ID": "l22", "address": "44045 Riverside Pkwy, Leesburg, VA 20176", "doctors": 22 }, "geometry": { "type": "Point", "coordinates": [ -77.477535, 39.074045 ] } },
{ "type": "Feature", "properties": { "ID": "l23", "address": "10301 Georgia Ave, Silver Spring, MD 20902", "doctors": 2 }, "geometry": { "type": "Point", "coordinates": [ -77.0450793, 39.0239983 ] } },
{ "type": "Feature", "properties": { "ID": "l24", "address": "3001 Hospital Dr, Cheverly, MD 20785", "doctors": 13 }, "geometry": { "type": "Point", "coordinates": [ -76.9209112, 38.9306528 ] } },
{ "type": "Feature", "properties": { "ID": "l25", "address": "3300 Gallows Rd, Falls Church, VA 22042", "doctors": 57 }, "geometry": { "type": "Point", "coordinates": [ -77.2281465, 38.8575961 ] } },
{ "type": "Feature", "properties": { "ID": "l27", "address": "4225 Altamont Pl, White Plains, MD 20695", "doctors": 1 }, "geometry": { "type": "Point", "coordinates": [ -76.9402697, 38.596171 ] } },
{ "type": "Feature", "properties": { "ID": "l28", "address": "3300 Gallows Rd Fl 2, Falls Church, VA 22042", "doctors": 6 }, "geometry": { "type": "Point", "coordinates": [ -77.2283239, 38.8578033 ] } },
{ "type": "Feature", "properties": { "ID": "l29", "address": "106 Irving St NW Ste 4700N, Washington, DC 20010", "doctors": 22 }, "geometry": { "type": "Point", "coordinates": [ -77.0136469, 38.929777 ] } },
{ "type": "Feature", "properties": { "ID": "l31", "address": "12107 Old Line Center, Waldorf, MD 20602", "doctors": 1 }, "geometry": { "type": "Point", "coordinates": [ -76.8893457, 38.616554 ] } },
{ "type": "Feature", "properties": { "ID": "l32", "address": "900 S Washington St, Falls Church, VA 22046", "doctors": 1 }, "geometry": { "type": "Point", "coordinates": [ -77.1830692, 38.8792475 ] } },
{ "type": "Feature", "properties": { "ID": "l33", "address": "9304 Forest Point Cir, Manassas, VA 20110", "doctors": 1 }, "geometry": { "type": "Point", "coordinates": [ -77.4793824, 38.7661913 ] } },
{ "type": "Feature", "properties": { "ID": "l34", "address": "3299 Woodburn Rd Ste 480, Annandale, VA 22003", "doctors": 3 }, "geometry": { "type": "Point", "coordinates": [ -77.2243906, 38.8540412 ] } },
{ "type": "Feature", "properties": { "ID": "l36", "address": "7500 Greenway Center Dr Fl 8, Greenbelt, MD 20770", "doctors": 1 }, "geometry": { "type": "Point", "coordinates": [ -76.8813759, 38.9922278 ] } },
{ "type": "Feature", "properties": { "ID": "l37", "address": "700 S Washington St Ste 330, Alexandria, VA 22314", "doctors": 3 }, "geometry": { "type": "Point", "coordinates": [ -77.0480307, 38.7978816 ] } },
{ "type": "Feature", "properties": { "ID": "l38", "address": "3206 Tower Oaks Blvd Ste 200, Rockville, MD 20852", "doctors": 4 }, "geometry": { "type": "Point", "coordinates": [ -77.1508238, 39.0603422 ] } },
{ "type": "Feature", "properties": { "ID": "l40", "address": "7610 Carroll Ave Ste 220, Takoma Park, MD 20912", "doctors": 2 }, "geometry": { "type": "Point", "coordinates": [ -77.0002919, 38.9835829 ] } },
{ "type": "Feature", "properties": { "ID": "l41", "address": "6501 Loisdale Ct, Springfield, VA 22150", "doctors": 35 }, "geometry": { "type": "Point", "coordinates": [ -77.1780824, 38.7763258 ] } },
{ "type": "Feature", "properties": { "ID": "l43", "address": "9812 FALLS RD, POTOMAC, MD 20854", "doctors": 1 }, "geometry": { "type": "Point", "coordinates": [ -77.2106251, 39.0170481 ] } },
{ "type": "Feature", "properties": { "ID": "l44", "address": "8081 INNOVATION PARK DR, FAIRFAX, VA 22031", "doctors": 4 }, "geometry": { "type": "Point", "coordinates": [ -77.223912, 38.8630298 ] } },
{ "type": "Feature", "properties": { "ID": "l45", "address": "6201 Centreville Rd Ste 100, Centreville, VA 20121", "doctors": 1 }, "geometry": { "type": "Point", "coordinates": [ -77.4342922, 38.8291669 ] } },
{ "type": "Feature", "properties": { "ID": "l46", "address": "2440 M St NW Ste 401, Washington, DC 20037", "doctors": 3 }, "geometry": { "type": "Point", "coordinates": [ -77.052984, 38.904908 ] } },
{ "type": "Feature", "properties": { "ID": "l47", "address": "11921 Rockville Pike Ste 400, Rockville, MD 20852", "doctors": 9 }, "geometry": { "type": "Point", "coordinates": [ -77.1148162, 39.0517841 ] } },
{ "type": "Feature", "properties": { "ID": "l48", "address": "1005 N Glebe Rd Ste 470, Arlington, VA 22201", "doctors": 2 }, "geometry": { "type": "Point", "coordinates": [ -77.1155718, 38.8831685 ] } },
{ "type": "Feature", "properties": { "ID": "l49", "address": "5335 Wisconsin Ave NW Ste 440, Washington, DC 20015", "doctors": 1 }, "geometry": { "type": "Point", "coordinates": [ -77.0846863, 38.9603613 ] } },
{ "type": "Feature", "properties": { "ID": "l51", "address": "110 Irving St NW, Washington, DC 20010", "doctors": 64 }, "geometry": { "type": "Point", "coordinates": [ -77.0144978, 38.9292248 ] } },
{ "type": "Feature", "properties": { "ID": "l52", "address": "19415 Deerfield Ave Ste 303, Leesburg, VA 20176", "doctors": 2 }, "geometry": { "type": "Point", "coordinates": [ -77.4774966, 39.0794462 ] } },
{ "type": "Feature", "properties": { "ID": "l53", "address": "12915 PINECREST RD, HERNDON, VA 20171", "doctors": 1 }, "geometry": { "type": "Point", "coordinates": [ -77.3945914, 38.9276826 ] } },
{ "type": "Feature", "properties": { "ID": "l55", "address": "9601 Blackwell Rd Ste 400, Rockville, MD 20850", "doctors": 8 }, "geometry": { "type": "Point", "coordinates": [ -77.1928177, 39.1016751 ] } },
{ "type": "Feature", "properties": { "ID": "l56", "address": "1701 N George Mason Dr, Arlington, VA 22205", "doctors": 4 }, "geometry": { "type": "Point", "coordinates": [ -77.1278965, 38.8894504 ] } },
{ "type": "Feature", "properties": { "ID": "l57", "address": "21785 Filigree Ct Ste 201, Ashburn, VA 20147", "doctors": 2 }, "geometry": { "type": "Point", "coordinates": [ -77.457695, 39.0124737 ] } },
{ "type": "Feature", "properties": { "ID": "l58", "address": "3800 RESERVOIR RD NW, WASHINGTON, DC 20007", "doctors": 33 }, "geometry": { "type": "Point", "coordinates": [ -77.0753587, 38.9114004 ] } },
{ "type": "Feature", "properties": { "ID": "l59", "address": "1005 N Glebe Rd Ste 430, Arlington, VA 22201", "doctors": 10 }, "geometry": { "type": "Point", "coordinates": [ -77.1156313, 38.8830538 ] } },
{ "type": "Feature", "properties": { "ID": "l61", "address": "4301 JONES BRIDGE RD, BETHESDA, MD 20814", "doctors": 17 }, "geometry": { "type": "Point", "coordinates": [ -77.0862793, 39.0018561 ] } },
{ "type": "Feature", "properties": { "ID": "l62", "address": "1513 JUDD CT, HERNDON, VA 20170", "doctors": 1 }, "geometry": { "type": "Point", "coordinates": [ -77.3813839, 38.9881412 ] } },
{ "type": "Feature", "properties": { "ID": "l63", "address": "2150 Pennsylvania Ave NW, Washington, DC 20037", "doctors": 101 }, "geometry": { "type": "Point", "coordinates": [ -77.0485151, 38.9012079 ] } },
{ "type": "Feature", "properties": { "ID": "l64", "address": "12255 Fair Lakes Pkwy, Fairfax, VA 22033", "doctors": 9 }, "geometry": { "type": "Point", "coordinates": [ -77.3702158, 38.8587935 ] } },
{ "type": "Feature", "properties": { "ID": "l65", "address": "2181 Jamieson Ave Unit 1606, Alexandria, VA 22314", "doctors": 1 }, "geometry": { "type": "Point", "coordinates": [ -77.066983, 38.8030048 ] } },
{ "type": "Feature", "properties": { "ID": "l66", "address": "3620 Joseph Siewick Dr Ste 400, Fairfax, VA 22033", "doctors": 2 }, "geometry": { "type": "Point", "coordinates": [ -77.381478, 38.883555 ] } },
{ "type": "Feature", "properties": { "ID": "l67", "address": "PO Box 41041, Bethesda, MD 20824", "doctors": 1 }, "geometry": { "type": "Point", "coordinates": [ -77.0947092, 38.984652 ] } },
{ "type": "Feature", "properties": { "ID": "l68", "address": "10313 Georgia Ave Ste 202, Silver Spring, MD 20902", "doctors": 8 }, "geometry": { "type": "Point", "coordinates": [ -77.0451046, 39.0249052 ] } },
{ "type": "Feature", "properties": { "ID": "l69", "address": "2300 M St NW Ste 110, Washington, DC 20037", "doctors": 6 }, "geometry": { "type": "Point", "coordinates": [ -77.050618, 38.9050094 ] } },
{ "type": "Feature", "properties": { "ID": "l70", "address": "18101 Prince Philip Dr Ste 5100, Olney, MD 20832", "doctors": 9 }, "geometry": { "type": "Point", "coordinates": [ -77.0546121, 39.1540271 ] } },
{ "type": "Feature", "properties": { "ID": "l71", "address": "3600 Joseph Siewick Dr, Fairfax, VA 22033", "doctors": 11 }, "geometry": { "type": "Point", "coordinates": [ -77.3800608, 38.8841221 ] } },
{ "type": "Feature", "properties": { "ID": "l73", "address": "9004 Crownwood Ct, Burke, VA 22015", "doctors": 3 }, "geometry": { "type": "Point", "coordinates": [ -77.2579175, 38.8100567 ] } },
{ "type": "Feature", "properties": { "ID": "l74", "address": "11119 Rockville Pike, Rockville, MD 20852", "doctors": 2 }, "geometry": { "type": "Point", "coordinates": [ -77.1082894, 39.0391905 ] } },
{ "type": "Feature", "properties": { "ID": "l75", "address": "3803 Fairfax Dr Ste 500, Arlington, VA 22203", "doctors": 12 }, "geometry": { "type": "Point", "coordinates": [ -77.1052023, 38.8829103 ] } },
{ "type": "Feature", "properties": { "ID": "l76", "address": "11016 New Hampshire Ave, Silver Spring, MD 20904", "doctors": 1 }, "geometry": { "type": "Point", "coordinates": [ -76.989862, 39.0370882 ] } },
{ "type": "Feature", "properties": { "ID": "l77", "address": "14701 Lee Hwy Ste 304, Centreville, VA 20121", "doctors": 3 }, "geometry": { "type": "Point", "coordinates": [ -77.4552962, 38.8343714 ] } },
{ "type": "Feature", "properties": { "ID": "l78", "address": "1160 Varnum St NE Suite 212, Washington, DC 20017", "doctors": 2 }, "geometry": { "type": "Point", "coordinates": [ -76.9916966, 38.9442296 ] } },
{ "type": "Feature", "properties": { "ID": "l79", "address": "2440 M St NW Ste 320, Washington, DC 20037", "doctors": 6 }, "geometry": { "type": "Point", "coordinates": [ -77.052974, 38.9050431 ] } },
{ "type": "Feature", "properties": { "ID": "l80", "address": "116Q Edwards Ferry Rd NE, Leesburg, VA 20176", "doctors": 3 }, "geometry": { "type": "Point", "coordinates": [ -77.5613598, 39.1148874 ] } },
{ "type": "Feature", "properties": { "ID": "l81", "address": "75 Thomas Johnson Dr Ste G, Frederick, MD 21702", "doctors": 6 }, "geometry": { "type": "Point", "coordinates": [ -77.4062633, 39.4474468 ] } },
{ "type": "Feature", "properties": { "ID": "l84", "address": "1220 12th St SE Ste 120, Washington, DC 20003", "doctors": 4 }, "geometry": { "type": "Point", "coordinates": [ -76.989658, 38.8751726 ] } },
{ "type": "Feature", "properties": { "ID": "l85", "address": "2855 Crain Hwy, Waldorf, MD 20601", "doctors": 1 }, "geometry": { "type": "Point", "coordinates": [ -76.9050169, 38.6330778 ] } },
{ "type": "Feature", "properties": { "ID": "l86", "address": "8901 Wisconsin Ave, Bethesda, MD 20889", "doctors": 4 }, "geometry": { "type": "Point", "coordinates": [ -77.0898528, 39.0020633 ] } },
{ "type": "Feature", "properties": { "ID": "l87", "address": "19415 Deerfield Ave Ste 202, Lansdowne, VA 20176", "doctors": 5 }, "geometry": { "type": "Point", "coordinates": [ -77.4774281, 39.0794385 ] } },
{ "type": "Feature", "properties": { "ID": "l89", "address": "1221 Mercantile Ln, Largo, MD 20774", "doctors": 19 }, "geometry": { "type": "Point", "coordinates": [ -76.8356974, 38.9069877 ] } },
{ "type": "Feature", "properties": { "ID": "l90", "address": "2150 Pennsylvania Ave NW Fl 5, Washington, DC 20037", "doctors": 6 }, "geometry": { "type": "Point", "coordinates": [ -77.0485405, 38.9016541 ] } },
{ "type": "Feature", "properties": { "ID": "l91", "address": "407 N Washington St Ste 105, Falls Church, VA 22046", "doctors": 21 }, "geometry": { "type": "Point", "coordinates": [ -77.1656922, 38.88562 ] } },
{ "type": "Feature", "properties": { "ID": "l92", "address": "7202 ARLINGTON BLVD, FALLS CHURCH, VA 22042", "doctors": 1 }, "geometry": { "type": "Point", "coordinates": [ -77.1937611, 38.867101 ] } },
{ "type": "Feature", "properties": { "ID": "l93", "address": "10313 Georgia Ave, Silver Spring, MD 20902", "doctors": 1 }, "geometry": { "type": "Point", "coordinates": [ -77.0452025, 39.0249395 ] } },
{ "type": "Feature", "properties": { "ID": "l94", "address": "11500 Old Georgetown Rd, Rockville, MD 20852", "doctors": 4 }, "geometry": { "type": "Point", "coordinates": [ -77.1208758, 39.0453252 ] } },
{ "type": "Feature", "properties": { "ID": "l95", "address": "13135 LEE JACKSON MEMORIAL HWY, FAIRFAX, VA 22033", "doctors": 4 }, "geometry": { "type": "Point", "coordinates": [ -77.4003538, 38.8808961 ] } },
{ "type": "Feature", "properties": { "ID": "l96", "address": "224A Cornwall St NW, Leesburg, VA 20176", "doctors": 2 }, "geometry": { "type": "Point", "coordinates": [ -77.5688377, 39.1198197 ] } },
{ "type": "Feature", "properties": { "ID": "l97", "address": "6110 HERON POND CT, BURKE, VA 22015", "doctors": 1 }, "geometry": { "type": "Point", "coordinates": [ -77.300615, 38.7861846 ] } },
{ "type": "Feature", "properties": { "ID": "l100", "address": "10903 NEW HAMPSHIRE, SILVER SPRING, MD 20993", "doctors": 5 }, "geometry": { "type": "Point", "coordinates": [ -76.9831134, 39.035332 ] } },
{ "type": "Feature", "properties": { "ID": "l101", "address": "44055 Riverside Pkwy Ste 220, Leesburg, VA 20176", "doctors": 2 }, "geometry": { "type": "Point", "coordinates": [ -77.4769124, 39.0744318 ] } },
{ "type": "Feature", "properties": { "ID": "l104", "address": "1770 Sycamore St NW, Washington, DC 20012", "doctors": 1 }, "geometry": { "type": "Point", "coordinates": [ -77.0414693, 38.991225 ] } },
{ "type": "Feature", "properties": { "ID": "l105", "address": "4470 Regency Pl Ste 106, White Plains, MD 20695", "doctors": 7 }, "geometry": { "type": "Point", "coordinates": [ -76.9425159, 38.5934417 ] } },
{ "type": "Feature", "properties": { "ID": "l106", "address": "555 12th St NW, Washington, DC 20004", "doctors": 1 }, "geometry": { "type": "Point", "coordinates": [ -77.0274317, 38.8968172 ] } },
{ "type": "Feature", "properties": { "ID": "l107", "address": "2141 K St NW Ste 808, Washington, DC 20037", "doctors": 9 }, "geometry": { "type": "Point", "coordinates": [ -77.0480057, 38.9028966 ] } },
{ "type": "Feature", "properties": { "ID": "l108", "address": "7297 Lee Hwy Ste F, Falls Church, VA 22042", "doctors": 1 }, "geometry": { "type": "Point", "coordinates": [ -77.1914813, 38.8773208 ] } },
{ "type": "Feature", "properties": { "ID": "l109", "address": "2296 Opitz Blvd Ste 440, Woodbridge, VA 22191", "doctors": 13 }, "geometry": { "type": "Point", "coordinates": [ -77.283093, 38.6350872 ] } },
{ "type": "Feature", "properties": { "ID": "l111", "address": "3710 Riviera St, Temple Hills, MD 20748", "doctors": 1 }, "geometry": { "type": "Point", "coordinates": [ -76.9434658, 38.8311533 ] } },
{ "type": "Feature", "properties": { "ID": "l112", "address": "1145 19th St NW Ste 410, Washington, DC 20036", "doctors": 21 }, "geometry": { "type": "Point", "coordinates": [ -77.0430421, 38.9050669 ] } },
{ "type": "Feature", "properties": { "ID": "l113", "address": "165 Thomas Johnson Dr, Frederick, MD 21702", "doctors": 1 }, "geometry": { "type": "Point", "coordinates": [ -77.4069455, 39.4418167 ] } },
{ "type": "Feature", "properties": { "ID": "l115", "address": "19851 Observation Dr Ste 345, Germantown, MD 20876", "doctors": 5 }, "geometry": { "type": "Point", "coordinates": [ -77.2429536, 39.1825999 ] } },
{ "type": "Feature", "properties": { "ID": "l116", "address": "8316 Arlington Blvd Ste 610, Fairfax, VA 22031", "doctors": 3 }, "geometry": { "type": "Point", "coordinates": [ -77.2323038, 38.8664548 ] } },
{ "type": "Feature", "properties": { "ID": "l118", "address": "12530 Parklawn Dr Ste 170, Rockville, MD 20852", "doctors": 1 }, "geometry": { "type": "Point", "coordinates": [ -77.1180888, 39.0610174 ] } },
{ "type": "Feature", "properties": { "ID": "l119", "address": "1800 Town Center Dr, Reston, VA 20190", "doctors": 1 }, "geometry": { "type": "Point", "coordinates": [ -77.3642949, 38.9635216 ] } },
{ "type": "Feature", "properties": { "ID": "l120", "address": "8300 Old Courthouse Rd Ste 140B, Vienna, VA 22182", "doctors": 1 }, "geometry": { "type": "Point", "coordinates": [ -77.2313096, 38.9143125 ] } },
{ "type": "Feature", "properties": { "ID": "l123", "address": "8380 Greensboro Dr, McLean, VA 22102", "doctors": 1 }, "geometry": { "type": "Point", "coordinates": [ -77.2335999, 38.9296983 ] } },
{ "type": "Feature", "properties": { "ID": "l124", "address": "5530 Wisconsin Ave, Chevy Chase, MD 20815", "doctors": 10 }, "geometry": { "type": "Point", "coordinates": [ -77.0875266, 38.9650563 ] } },
{ "type": "Feature", "properties": { "ID": "l125", "address": "4333 Old Branch Ave, Temple Hills, MD 20748", "doctors": 3 }, "geometry": { "type": "Point", "coordinates": [ -76.9386941, 38.8335848 ] } },
{ "type": "Feature", "properties": { "ID": "l126", "address": "24805 Pinebrook Rd Ste 101, Chantilly, VA 20152", "doctors": 1 }, "geometry": { "type": "Point", "coordinates": [ -77.5299261, 38.9309945 ] } },
{ "type": "Feature", "properties": { "ID": "l128", "address": "899 N Capitol St NE, Washington, DC 20002", "doctors": 1 }, "geometry": { "type": "Point", "coordinates": [ -77.0085403, 38.9010559 ] } },
{ "type": "Feature", "properties": { "ID": "l129", "address": "8644 Sudley Rd Ste 305, Manassas, VA 20110", "doctors": 6 }, "geometry": { "type": "Point", "coordinates": [ -77.4887201, 38.7674286 ] } },
{ "type": "Feature", "properties": { "ID": "l130", "address": "10215 Fernwood Rd Ste 401A, Bethesda, MD 20817", "doctors": 3 }, "geometry": { "type": "Point", "coordinates": [ -77.1345845, 39.024065 ] } },
{ "type": "Feature", "properties": { "ID": "l131", "address": "3613 Chain Bridge Rd, Fairfax, VA 22030", "doctors": 1 }, "geometry": { "type": "Point", "coordinates": [ -77.306416, 38.857348 ] } },
{ "type": "Feature", "properties": { "ID": "l132", "address": "1850 Town Center Pkwy, Reston, VA 20190", "doctors": 6 }, "geometry": { "type": "Point", "coordinates": [ -77.363936, 38.9626797 ] } },
{ "type": "Feature", "properties": { "ID": "l133", "address": "6400 Arlington Blvd Ste 210, Falls Church, VA 22042", "doctors": 8 }, "geometry": { "type": "Point", "coordinates": [ -77.1600746, 38.8728332 ] } },
{ "type": "Feature", "properties": { "ID": "l135", "address": "4040 Fairfax Dr Ste 600, Arlington, VA 22203", "doctors": 3 }, "geometry": { "type": "Point", "coordinates": [ -77.1088787, 38.8820343 ] } },
{ "type": "Feature", "properties": { "ID": "l136", "address": "7610 Carroll Ave, Takoma Park, MD 20912", "doctors": 2 }, "geometry": { "type": "Point", "coordinates": [ -77.0005317, 38.9846872 ] } },
{ "type": "Feature", "properties": { "ID": "l137", "address": "19490 Sandridge Way Ste 350, Leesburg, VA 20176", "doctors": 3 }, "geometry": { "type": "Point", "coordinates": [ -77.4818508, 39.0768946 ] } },
{ "type": "Feature", "properties": { "ID": "l138", "address": "1225 4th St NE, Washington, DC 20002", "doctors": 7 }, "geometry": { "type": "Point", "coordinates": [ -77.0002162, 38.9063311 ] } },
{ "type": "Feature", "properties": { "ID": "l139", "address": "20 S Quaker Ln Ste 220, Alexandria, VA 22314", "doctors": 3 }, "geometry": { "type": "Point", "coordinates": [ -77.0870032, 38.8074858 ] } },
{ "type": "Feature", "properties": { "ID": "l140", "address": "2041 Georgia Ave NW, Washington, DC 20060", "doctors": 31 }, "geometry": { "type": "Point", "coordinates": [ -77.0209347, 38.9174791 ] } },
{ "type": "Feature", "properties": { "ID": "l141", "address": "10640 Main St Ste 300, Fairfax, VA 22030", "doctors": 2 }, "geometry": { "type": "Point", "coordinates": [ -77.3129292, 38.8485381 ] } },
{ "type": "Feature", "properties": { "ID": "l142", "address": "6281 TIMARRON COVE LN, BURKE, VA 22015", "doctors": 1 }, "geometry": { "type": "Point", "coordinates": [ -77.2812361, 38.7817474 ] } },
{ "type": "Feature", "properties": { "ID": "l143", "address": "19801 Observation Dr, Germantown, MD 20876", "doctors": 2 }, "geometry": { "type": "Point", "coordinates": [ -77.242491, 39.1816721 ] } },
{ "type": "Feature", "properties": { "ID": "l144", "address": "201 N Washington St, Falls Church, VA 22046", "doctors": 7 }, "geometry": { "type": "Point", "coordinates": [ -77.1703546, 38.8839774 ] } },
{ "type": "Feature", "properties": { "ID": "l145", "address": "3610D King St, Alexandria, VA 22302", "doctors": 1 }, "geometry": { "type": "Point", "coordinates": [ -77.0903402, 38.8285008 ] } },
{ "type": "Feature", "properties": { "ID": "l146", "address": "106 Little Falls St, Falls Church, VA 22046", "doctors": 1 }, "geometry": { "type": "Point", "coordinates": [ -77.1729381, 38.8842046 ] } },
{ "type": "Feature", "properties": { "ID": "l148", "address": "1150 Varnum St NE, Washington, DC 20017", "doctors": 4 }, "geometry": { "type": "Point", "coordinates": [ -76.9920275, 38.9439999 ] } },
{ "type": "Feature", "properties": { "ID": "l149", "address": "605 Charles St, La Plata, MD 20646", "doctors": 6 }, "geometry": { "type": "Point", "coordinates": [ -76.9734422, 38.5293784 ] } },
{ "type": "Feature", "properties": { "ID": "l150", "address": "2900 Mercy Ln Fl 3, Hyattsville, MD 20785", "doctors": 1 }, "geometry": { "type": "Point", "coordinates": [ -76.9202553, 38.9307986 ] } },
{ "type": "Feature", "properties": { "ID": "l151", "address": "5100 Auth Way, Suitland, MD 20746", "doctors": 7 }, "geometry": { "type": "Point", "coordinates": [ -76.919279, 38.8275873 ] } },
{ "type": "Feature", "properties": { "ID": "l152", "address": "7915 Lake Manassas Dr Ste 210, Gainesville, VA 20155", "doctors": 4 }, "geometry": { "type": "Point", "coordinates": [ -77.6456532, 38.7861319 ] } },
{ "type": "Feature", "properties": { "ID": "l153", "address": "2902 Oak Shadow Dr, Herndon, VA 20171", "doctors": 1 }, "geometry": { "type": "Point", "coordinates": [ -77.3893445, 38.9189577 ] } },
{ "type": "Feature", "properties": { "ID": "l154", "address": "6324 CULVERHOUSE CT, GAINESVILLE, VA 20155", "doctors": 1 }, "geometry": { "type": "Point", "coordinates": [ -77.587978, 38.82107 ] } },
{ "type": "Feature", "properties": { "ID": "l155", "address": "3930 Pender Dr Ste 60, Fairfax, VA 22030", "doctors": 2 }, "geometry": { "type": "Point", "coordinates": [ -77.3341662, 38.8604978 ] } },
{ "type": "Feature", "properties": { "ID": "l156", "address": "8901 Rockville Pike, Bethesda, MD 20889", "doctors": 35 }, "geometry": { "type": "Point", "coordinates": [ -77.0935096, 39.0017771 ] } },
{ "type": "Feature", "properties": { "ID": "l157", "address": "2100 Washington Blvd Fl 2, Arlington, VA 22204", "doctors": 6 }, "geometry": { "type": "Point", "coordinates": [ -77.0832363, 38.8734688 ] } },
{ "type": "Feature", "properties": { "ID": "l158", "address": "12201 Plum Orchard Dr, Silver Spring, MD 20904", "doctors": 4 }, "geometry": { "type": "Point", "coordinates": [ -76.9553881, 39.0562931 ] } },
{ "type": "Feature", "properties": { "ID": "l160", "address": "6201 Greenbelt Rd Ste U8A, College Park, MD 20740", "doctors": 1 }, "geometry": { "type": "Point", "coordinates": [ -76.906728, 38.9964147 ] } },
{ "type": "Feature", "properties": { "ID": "l161", "address": "44055 Riverside Pkwy Ste 234, Leesburg, VA 20176", "doctors": 8 }, "geometry": { "type": "Point", "coordinates": [ -77.4778811, 39.0740611 ] } },
{ "type": "Feature", "properties": { "ID": "l162", "address": "2311 M St NW Ste 304, Washington, DC 20037", "doctors": 1 }, "geometry": { "type": "Point", "coordinates": [ -77.0507626, 38.9055706 ] } },
{ "type": "Feature", "properties": { "ID": "l163", "address": "43480 Yukon Dr, Ashburn, VA 20147", "doctors": 5 }, "geometry": { "type": "Point", "coordinates": [ -77.4928952, 39.0085201 ] } },
{ "type": "Feature", "properties": { "ID": "l164", "address": "4208 Evergreen Ln, Annandale, VA 22003", "doctors": 1 }, "geometry": { "type": "Point", "coordinates": [ -77.1875617, 38.8329034 ] } },
{ "type": "Feature", "properties": { "ID": "l165", "address": "12508 Lake Ridge Dr, Woodbridge, VA 22192", "doctors": 10 }, "geometry": { "type": "Point", "coordinates": [ -77.2762309, 38.6798384 ] } },
{ "type": "Feature", "properties": { "ID": "l167", "address": "8301 Arlington Blvd Ste 409, Fairfax, VA 22031", "doctors": 2 }, "geometry": { "type": "Point", "coordinates": [ -77.23122, 38.864988 ] } },
{ "type": "Feature", "properties": { "ID": "l168", "address": "6355 Walker Ln Ste 303, Alexandria, VA 22310", "doctors": 7 }, "geometry": { "type": "Point", "coordinates": [ -77.1607569, 38.7672049 ] } },
{ "type": "Feature", "properties": { "ID": "l169", "address": "7704 Matapeake Business Dr, Brandywine, MD 20613", "doctors": 1 }, "geometry": { "type": "Point", "coordinates": [ -76.8721862, 38.6770643 ] } },
{ "type": "Feature", "properties": { "ID": "l170", "address": "8316 Arlington Blvd Ste 515, Fairfax, VA 22031", "doctors": 4 }, "geometry": { "type": "Point", "coordinates": [ -77.2323038, 38.8664546 ] } },
{ "type": "Feature", "properties": { "ID": "l171", "address": "2021 K St NW Ste 701, Washington, DC 20006", "doctors": 6 }, "geometry": { "type": "Point", "coordinates": [ -77.0457423, 38.9029568 ] } },
{ "type": "Feature", "properties": { "ID": "l172", "address": "44055 RIVERSIDE PKWY, LEESBURG, VA 20176", "doctors": 5 }, "geometry": { "type": "Point", "coordinates": [ -77.4778429, 39.0740176 ] } },
{ "type": "Feature", "properties": { "ID": "l173", "address": "305 Harrison St SE Ste 200A, Leesburg, VA 20175", "doctors": 1 }, "geometry": { "type": "Point", "coordinates": [ -77.5633301, 39.1115755 ] } },
{ "type": "Feature", "properties": { "ID": "l175", "address": "11125 Rockville Pike Ste 107, Rockville, MD 20852", "doctors": 1 }, "geometry": { "type": "Point", "coordinates": [ -77.1085585, 39.0396347 ] } },
{ "type": "Feature", "properties": { "ID": "l177", "address": "2101 E Jefferson St, Rockville, MD 20852", "doctors": 4 }, "geometry": { "type": "Point", "coordinates": [ -77.127189, 39.0501622 ] } },
{ "type": "Feature", "properties": { "ID": "l178", "address": "2405 I St NW, Washington, DC 20037", "doctors": 1 }, "geometry": { "type": "Point", "coordinates": [ -77.0521589, 38.900966 ] } },
{ "type": "Feature", "properties": { "ID": "l179", "address": "966 Hungerford Dr Ste 24, Rockville, MD 20850", "doctors": 1 }, "geometry": { "type": "Point", "coordinates": [ -77.1546938, 39.1003503 ] } },
{ "type": "Feature", "properties": { "ID": "l180", "address": "11730 SUDLEY MANOR DR, MANASSAS, VA 20109", "doctors": 1 }, "geometry": { "type": "Point", "coordinates": [ -77.5184001, 38.7872807 ] } },
{ "type": "Feature", "properties": { "ID": "l182", "address": "10801 Lockwood Dr Ste 320, Silver Spring, MD 20901", "doctors": 8 }, "geometry": { "type": "Point", "coordinates": [ -77.002541, 39.03275 ] } },
{ "type": "Feature", "properties": { "ID": "l184", "address": "4001 Fair Ridge Dr Ste 304, Fairfax, VA 22033", "doctors": 6 }, "geometry": { "type": "Point", "coordinates": [ -77.3669323, 38.8708553 ] } },
{ "type": "Feature", "properties": { "ID": "l185", "address": "10903 NEW HAMPSHIRE AVE, SILVER SPRING, MD 20903", "doctors": 1 }, "geometry": { "type": "Point", "coordinates": [ -76.9819046, 39.0351878 ] } },
{ "type": "Feature", "properties": { "ID": "l186", "address": "8484 Georgia Ave Ste 100, Silver Spring, MD 20910", "doctors": 1 }, "geometry": { "type": "Point", "coordinates": [ -77.0271759, 38.9942157 ] } },
{ "type": "Feature", "properties": { "ID": "l187", "address": "14450 Smoketown Rd, Woodbridge, VA 22192", "doctors": 1 }, "geometry": { "type": "Point", "coordinates": [ -77.300469, 38.6383434 ] } },
{ "type": "Feature", "properties": { "ID": "l189", "address": "3700 Joseph Siewick Dr Ste 201, Fairfax, VA 22033", "doctors": 1 }, "geometry": { "type": "Point", "coordinates": [ -77.3811597, 38.8836196 ] } },
{ "type": "Feature", "properties": { "ID": "l190", "address": "3998 Fair Ridge Dr Ste 270, Fairfax, VA 22033", "doctors": 2 }, "geometry": { "type": "Point", "coordinates": [ -77.3689546, 38.8717928 ] } },
{ "type": "Feature", "properties": { "ID": "l191", "address": "7500 Greenway Center Dr Ste 620, Greenbelt, MD 20770", "doctors": 3 }, "geometry": { "type": "Point", "coordinates": [ -76.8813914, 38.9921588 ] } },
{ "type": "Feature", "properties": { "ID": "l192", "address": "7610 Carroll Ave Ste 470, Takoma Park, MD 20912", "doctors": 9 }, "geometry": { "type": "Point", "coordinates": [ -77.0004955, 38.9846989 ] } },
{ "type": "Feature", "properties": { "ID": "l193", "address": "9131 Piscataway Rd, Clinton, MD 20735", "doctors": 1 }, "geometry": { "type": "Point", "coordinates": [ -76.9015496, 38.7652 ] } },
{ "type": "Feature", "properties": { "ID": "l194", "address": "18109 Prince Philip Dr Ste B200, Olney, MD 20832", "doctors": 1 }, "geometry": { "type": "Point", "coordinates": [ -77.0543575, 39.1534222 ] } },
{ "type": "Feature", "properties": { "ID": "l195", "address": "8501 Arlington Blvd Ste 300, Fairfax, VA 22031", "doctors": 7 }, "geometry": { "type": "Point", "coordinates": [ -77.2385949, 38.8647255 ] } },
{ "type": "Feature", "properties": { "ID": "l196", "address": "8901 Wisconsin Ave Bldg 10 Rm 2, Bethesda, MD 20889", "doctors": 11 }, "geometry": { "type": "Point", "coordinates": [ -77.091722, 38.997829 ] } },
{ "type": "Feature", "properties": { "ID": "l197", "address": "1102 TRAVIS LN, GAITHERSBURG, MD 20879", "doctors": 1 }, "geometry": { "type": "Point", "coordinates": [ -77.2168822, 39.163107 ] } },
{ "type": "Feature", "properties": { "ID": "l199", "address": "4001 Fair Ridge Dr, Fairfax, VA 22033", "doctors": 2 }, "geometry": { "type": "Point", "coordinates": [ -77.3667505, 38.8708036 ] } },
{ "type": "Feature", "properties": { "ID": "l200", "address": "4494 N PALMER Rd, Bethesda, MD 20889", "doctors": 5 }, "geometry": { "type": "Point", "coordinates": [ -77.0951172, 39.0041823 ] } },
{ "type": "Feature", "properties": { "ID": "l201", "address": "6861 Elm St Ste 4D, McLean, VA 22101", "doctors": 2 }, "geometry": { "type": "Point", "coordinates": [ -77.1813621, 38.9366212 ] } },
{ "type": "Feature", "properties": { "ID": "l202", "address": "12800 Middlebrook Rd Ste 333, Germantown, MD 20874", "doctors": 6 }, "geometry": { "type": "Point", "coordinates": [ -77.2654067, 39.1767346 ] } },
{ "type": "Feature", "properties": { "ID": "l203", "address": "10810 Connecticut Ave, Kensington, MD 20895", "doctors": 4 }, "geometry": { "type": "Point", "coordinates": [ -77.0757833, 39.0325421 ] } },
{ "type": "Feature", "properties": { "ID": "l204", "address": "1850 Town Center Pkwy Ste 310, Reston, VA 20190", "doctors": 2 }, "geometry": { "type": "Point", "coordinates": [ -77.3645999, 38.9624394 ] } },
{ "type": "Feature", "properties": { "ID": "l205", "address": "4151 Bladensburg Rd, Brentwood, MD 20722", "doctors": 2 }, "geometry": { "type": "Point", "coordinates": [ -76.9456059, 38.9374841 ] } },
{ "type": "Feature", "properties": { "ID": "l207", "address": "2301 Research Blvd Suite 210, Rockville, MD 20850", "doctors": 2 }, "geometry": { "type": "Point", "coordinates": [ -77.1844399, 39.1037863 ] } },
{ "type": "Feature", "properties": { "ID": "l208", "address": "5206 Rolling Rd, Burke, VA 22015", "doctors": 1 }, "geometry": { "type": "Point", "coordinates": [ -77.2568297, 38.8098311 ] } },
{ "type": "Feature", "properties": { "ID": "l210", "address": "1715 N George Mason Dr Ste 302, Arlington, VA 22205", "doctors": 8 }, "geometry": { "type": "Point", "coordinates": [ -77.1285622, 38.8891566 ] } },
{ "type": "Feature", "properties": { "ID": "l212", "address": "18101 Prince Philip Dr, Olney, MD 20832", "doctors": 4 }, "geometry": { "type": "Point", "coordinates": [ -77.0547374, 39.1540614 ] } },
{ "type": "Feature", "properties": { "ID": "l213", "address": "15204 Omega Dr Ste 200, Rockville, MD 20850", "doctors": 2 }, "geometry": { "type": "Point", "coordinates": [ -77.1967987, 39.1070317 ] } },
{ "type": "Feature", "properties": { "ID": "l215", "address": "655 Watkins Mill Rd, Gaithersburg, MD 20879", "doctors": 19 }, "geometry": { "type": "Point", "coordinates": [ -77.2219476, 39.1561036 ] } },
{ "type": "Feature", "properties": { "ID": "l216", "address": "8303 Cherry Ln, Laurel, MD 20707", "doctors": 1 }, "geometry": { "type": "Point", "coordinates": [ -76.8642136, 39.0922753 ] } },
{ "type": "Feature", "properties": { "ID": "l217", "address": "5600 Fishers Ln Rm 6A, Rockville, MD 20852", "doctors": 2 }, "geometry": { "type": "Point", "coordinates": [ -77.1123801, 39.0621943 ] } },
{ "type": "Feature", "properties": { "ID": "l218", "address": "4660 Kenmore Ave Ste 902, Alexandria, VA 22304", "doctors": 2 }, "geometry": { "type": "Point", "coordinates": [ -77.1103804, 38.8282679 ] } },
{ "type": "Feature", "properties": { "ID": "l219", "address": "106 Irving St NW Ste 405, Washington, DC 20010", "doctors": 5 }, "geometry": { "type": "Point", "coordinates": [ -77.0143438, 38.9302222 ] } },
{ "type": "Feature", "properties": { "ID": "l220", "address": "4316 EVERGREEN LN, ANNANDALE, VA 22003", "doctors": 2 }, "geometry": { "type": "Point", "coordinates": [ -77.1864386, 38.8307289 ] } },
{ "type": "Feature", "properties": { "ID": "l221", "address": "13580 Groupe Dr Ste 105, Woodbridge, VA 22192", "doctors": 2 }, "geometry": { "type": "Point", "coordinates": [ -77.2960709, 38.6587599 ] } },
{ "type": "Feature", "properties": { "ID": "l222", "address": "100 Gallatin St NE, Washington, DC 20011", "doctors": 1 }, "geometry": { "type": "Point", "coordinates": [ -77.0074605, 38.9529194 ] } },
{ "type": "Feature", "properties": { "ID": "l223", "address": "101 W Broad St Ste 500, Falls Church, VA 22046", "doctors": 6 }, "geometry": { "type": "Point", "coordinates": [ -77.1717474, 38.8820041 ] } },
{ "type": "Feature", "properties": { "ID": "l224", "address": "6862 Elm St Ste 600, McLean, VA 22101", "doctors": 2 }, "geometry": { "type": "Point", "coordinates": [ -77.1808885, 38.937064 ] } },
{ "type": "Feature", "properties": { "ID": "l225", "address": "46090 Lake Center Plz Ste 204, Sterling, VA 20165", "doctors": 1 }, "geometry": { "type": "Point", "coordinates": [ -77.4052366, 39.0338519 ] } },
{ "type": "Feature", "properties": { "ID": "l226", "address": "911 Silver Spring Ave, Silver Spring, MD 20910", "doctors": 1 }, "geometry": { "type": "Point", "coordinates": [ -77.0250742, 38.9919228 ] } },
{ "type": "Feature", "properties": { "ID": "l229", "address": "6525 Belcrest Rd, Hyattsville, MD 20782", "doctors": 8 }, "geometry": { "type": "Point", "coordinates": [ -76.952895, 38.9694937 ] } },
{ "type": "Feature", "properties": { "ID": "l230", "address": "10215 Fernwood Rd Ste 250, Bethesda, MD 20817", "doctors": 5 }, "geometry": { "type": "Point", "coordinates": [ -77.1346926, 39.0240215 ] } },
{ "type": "Feature", "properties": { "ID": "l231", "address": "22ND AND I ST NW, WASHINGTON, DC 20037", "doctors": 4 }, "geometry": { "type": "Point", "coordinates": [ -77.0488331, 38.9007023 ] } },
{ "type": "Feature", "properties": { "ID": "l232", "address": "5255 LOUGHBORO RD NW, WASHINGTON, DC 20016", "doctors": 5 }, "geometry": { "type": "Point", "coordinates": [ -77.1085964, 38.9367111 ] } },
{ "type": "Feature", "properties": { "ID": "l235", "address": "9420 Key West Ave, Rockville, MD 20850", "doctors": 8 }, "geometry": { "type": "Point", "coordinates": [ -77.1944349, 39.1024953 ] } },
{ "type": "Feature", "properties": { "ID": "l236", "address": "4001 Fair Ridge Dr Ste 202, Fairfax, VA 22033", "doctors": 4 }, "geometry": { "type": "Point", "coordinates": [ -77.366827, 38.8708336 ] } },
{ "type": "Feature", "properties": { "ID": "l237", "address": "8140 Ashton Ave, Manassas, VA 20109", "doctors": 1 }, "geometry": { "type": "Point", "coordinates": [ -77.5174227, 38.7811677 ] } },
{ "type": "Feature", "properties": { "ID": "l238", "address": "6355 Walker Ln, Alexandria, VA 22310", "doctors": 2 }, "geometry": { "type": "Point", "coordinates": [ -77.1608289, 38.7671668 ] } },
{ "type": "Feature", "properties": { "ID": "l239", "address": "500 N Washington St Ste 300, Falls Church, VA 22046", "doctors": 3 }, "geometry": { "type": "Point", "coordinates": [ -77.1640282, 38.8854791 ] } },
{ "type": "Feature", "properties": { "ID": "l240", "address": "2400 Pennsylvania Ave NW, Washington, DC 20037", "doctors": 1 }, "geometry": { "type": "Point", "coordinates": [ -77.051814, 38.9027963 ] } },
{ "type": "Feature", "properties": { "ID": "l241", "address": "2401 E St NW, Washington, DC 20226", "doctors": 1 }, "geometry": { "type": "Point", "coordinates": [ -77.0509449, 38.8967035 ] } },
{ "type": "Feature", "properties": { "ID": "l242", "address": "10705 Bailey Dr, Cheltenham, MD 20623", "doctors": 1 }, "geometry": { "type": "Point", "coordinates": [ -76.8204905, 38.7419926 ] } },
{ "type": "Feature", "properties": { "ID": "l243", "address": "3299 Woodburn Rd Ste 350, Annandale, VA 22003", "doctors": 6 }, "geometry": { "type": "Point", "coordinates": [ -77.2243937, 38.8539469 ] } },
{ "type": "Feature", "properties": { "ID": "l245", "address": "9811 Greenbelt Rd Ste 104, Lanham, MD 20706", "doctors": 1 }, "geometry": { "type": "Point", "coordinates": [ -76.8351264, 38.9903602 ] } },
{ "type": "Feature", "properties": { "ID": "l247", "address": "19735 Germantown Rd Ste 270, Germantown, MD 20874", "doctors": 2 }, "geometry": { "type": "Point", "coordinates": [ -77.2641324, 39.1798318 ] } },
{ "type": "Feature", "properties": { "ID": "l248", "address": "1500 N. Beauregard St. Suite 210, Alexandria, VA 22311", "doctors": 2 }, "geometry": { "type": "Point", "coordinates": [ -77.124364, 38.832373 ] } },
{ "type": "Feature", "properties": { "ID": "l249", "address": "3289 Woodburn Rd Ste 130, Annandale, VA 22003", "doctors": 5 }, "geometry": { "type": "Point", "coordinates": [ -77.2234482, 38.8541231 ] } },
{ "type": "Feature", "properties": { "ID": "l250", "address": "7350 Van Dusen Rd Ste 330, Laurel, MD 20707", "doctors": 6 }, "geometry": { "type": "Point", "coordinates": [ -76.880619, 39.0879936 ] } },
{ "type": "Feature", "properties": { "ID": "l251", "address": "10205 HUNT COUNTRY LN, VIENNA, VA 22182", "doctors": 1 }, "geometry": { "type": "Point", "coordinates": [ -77.2989432, 38.9418731 ] } },
{ "type": "Feature", "properties": { "ID": "l252", "address": "4701 Willard Ave Ste 215, Chevy Chase, MD 20815", "doctors": 1 }, "geometry": { "type": "Point", "coordinates": [ -77.0944877, 38.9631439 ] } },
{ "type": "Feature", "properties": { "ID": "l253", "address": "6301 Executive Blvd, Rockville, MD 20852", "doctors": 5 }, "geometry": { "type": "Point", "coordinates": [ -77.1254548, 39.0500573 ] } },
{ "type": "Feature", "properties": { "ID": "l254", "address": "3301 Woodburn Rd Ste 309, Annandale, VA 22003", "doctors": 4 }, "geometry": { "type": "Point", "coordinates": [ -77.2255771, 38.8538374 ] } },
{ "type": "Feature", "properties": { "ID": "l255", "address": "5215 Loughboro Rd NW Ste 500, Washington, DC 20016", "doctors": 12 }, "geometry": { "type": "Point", "coordinates": [ -77.1074628, 38.9370601 ] } },
{ "type": "Feature", "properties": { "ID": "l256", "address": "4175 N Hanson Ct Ste 201, Bowie, MD 20716", "doctors": 3 }, "geometry": { "type": "Point", "coordinates": [ -76.7195705, 38.9470288 ] } },
{ "type": "Feature", "properties": { "ID": "l257", "address": "2800 S Shirlington Rd Ste 706, Arlington, VA 22206", "doctors": 8 }, "geometry": { "type": "Point", "coordinates": [ -77.0845759, 38.8425508 ] } },
{ "type": "Feature", "properties": { "ID": "l258", "address": "10750 COLUMBIA PIKE, SILVER SPRING, MD 20901", "doctors": 5 }, "geometry": { "type": "Point", "coordinates": [ -77.0045361, 39.0323711 ] } },
{ "type": "Feature", "properties": { "ID": "l259", "address": "9300 Dewitt Loop, Fort Belvoir, VA 22060", "doctors": 9 }, "geometry": { "type": "Point", "coordinates": [ -77.1433401, 38.7052552 ] } },
{ "type": "Feature", "properties": { "ID": "l260", "address": "1409 GREENWOOD PL, ALEXANDRIA, VA 22304", "doctors": 1 }, "geometry": { "type": "Point", "coordinates": [ -77.1001075, 38.821547 ] } },
{ "type": "Feature", "properties": { "ID": "l261", "address": "1715 GEORGE MASON Dr, Arlington, VA 22207", "doctors": 1 }, "geometry": { "type": "Point", "coordinates": [ -77.1282472, 38.8904054 ] } },
{ "type": "Feature", "properties": { "ID": "l262", "address": "3020 Hamaker Ct Ste 501, Fairfax, VA 22031", "doctors": 7 }, "geometry": { "type": "Point", "coordinates": [ -77.2371661, 38.8682723 ] } },
{ "type": "Feature", "properties": { "ID": "l263", "address": "8501 Arlington Blvd Ste 500, Fairfax, VA 22031", "doctors": 14 }, "geometry": { "type": "Point", "coordinates": [ -77.2385949, 38.8648052 ] } },
{ "type": "Feature", "properties": { "ID": "l264", "address": "215 Midsummer Cir, Gaithersburg, MD 20878", "doctors": 1 }, "geometry": { "type": "Point", "coordinates": [ -77.2263473, 39.1111037 ] } },
{ "type": "Feature", "properties": { "ID": "l265", "address": "2800 S Shirlington Rd Ste 500, Arlington, VA 22206", "doctors": 1 }, "geometry": { "type": "Point", "coordinates": [ -77.0844747, 38.8425303 ] } },
{ "type": "Feature", "properties": { "ID": "l266", "address": "165 Thomas Johnson Dr Ste F, Frederick, MD 21702", "doctors": 2 }, "geometry": { "type": "Point", "coordinates": [ -77.4071472, 39.4418189 ] } },
{ "type": "Feature", "properties": { "ID": "l268", "address": "1890 Metro Center Dr, Reston, VA 20190", "doctors": 5 }, "geometry": { "type": "Point", "coordinates": [ -77.3421063, 38.94944 ] } },
{ "type": "Feature", "properties": { "ID": "l269", "address": "1635 N George Mason Dr Ste 155, Arlington, VA 22205", "doctors": 13 }, "geometry": { "type": "Point", "coordinates": [ -77.1273558, 38.8887466 ] } },
{ "type": "Feature", "properties": { "ID": "l270", "address": "1875 Campus Commons Dr Ste 110, Reston, VA 20191", "doctors": 8 }, "geometry": { "type": "Point", "coordinates": [ -77.3340459, 38.9428904 ] } },
{ "type": "Feature", "properties": { "ID": "l271", "address": "2460 LINDEN LN, SILVER SPRING, MD 20910", "doctors": 1 }, "geometry": { "type": "Point", "coordinates": [ -77.0541077, 39.0085548 ] } },
{ "type": "Feature", "properties": { "ID": "l272", "address": "9301 Lee Ave, Manassas, VA 20110", "doctors": 3 }, "geometry": { "type": "Point", "coordinates": [ -77.4776363, 38.7515764 ] } },
{ "type": "Feature", "properties": { "ID": "l273", "address": "10215 Fernwood Rd Ste 101, Bethesda, MD 20817", "doctors": 9 }, "geometry": { "type": "Point", "coordinates": [ -77.1346926, 39.0240458 ] } },
{ "type": "Feature", "properties": { "ID": "l274", "address": "7190 Crestwood Blvd, Frederick, MD 21703", "doctors": 2 }, "geometry": { "type": "Point", "coordinates": [ -77.4154865, 39.3870826 ] } },
{ "type": "Feature", "properties": { "ID": "l275", "address": "26005 Ridge Rd Ste 200, Damascus, MD 20872", "doctors": 17 }, "geometry": { "type": "Point", "coordinates": [ -77.208934, 39.2845119 ] } },
{ "type": "Feature", "properties": { "ID": "l276", "address": "2100 Pennsylvania Ave NW Ste W, Washington, DC 20037", "doctors": 4 }, "geometry": { "type": "Point", "coordinates": [ -77.0473684, 38.9012429 ] } },
{ "type": "Feature", "properties": { "ID": "l277", "address": "3554 Chain Bridge Rd Ste 302, Fairfax, VA 22030", "doctors": 9 }, "geometry": { "type": "Point", "coordinates": [ -77.3082602, 38.8600556 ] } },
{ "type": "Feature", "properties": { "ID": "l281", "address": "3301 New Mexico Ave NW Ste 132, Washington, DC 20016", "doctors": 1 }, "geometry": { "type": "Point", "coordinates": [ -77.0851528, 38.9336674 ] } },
{ "type": "Feature", "properties": { "ID": "l282", "address": "4175 N Hanson Ct Ste 209, Bowie, MD 20716", "doctors": 3 }, "geometry": { "type": "Point", "coordinates": [ -76.7196455, 38.946996 ] } },
{ "type": "Feature", "properties": { "ID": "l283", "address": "20573 MIDDLEBURY ST, ASHBURN, VA 20147", "doctors": 1 }, "geometry": { "type": "Point", "coordinates": [ -77.5108374, 39.0506015 ] } },
{ "type": "Feature", "properties": { "ID": "l285", "address": "6546 80th St, Cabin John, MD 20818", "doctors": 1 }, "geometry": { "type": "Point", "coordinates": [ -77.1648055, 38.9772753 ] } },
{ "type": "Feature", "properties": { "ID": "l286", "address": "19785 Crystal Rock Dr Ste 208, Germantown, MD 20874", "doctors": 6 }, "geometry": { "type": "Point", "coordinates": [ -77.2611292, 39.1805729 ] } },
{ "type": "Feature", "properties": { "ID": "l288", "address": "10801 Lockwood Dr Ste 290, Silver Spring, MD 20901", "doctors": 7 }, "geometry": { "type": "Point", "coordinates": [ -77.0023354, 39.0330408 ] } },
{ "type": "Feature", "properties": { "ID": "l289", "address": "4320 Seminary Rd, Alexandria, VA 22304", "doctors": 6 }, "geometry": { "type": "Point", "coordinates": [ -77.1049733, 38.8223445 ] } },
{ "type": "Feature", "properties": { "ID": "l290", "address": "43480 Yukon Dr Ste 100, Ashburn, VA 20147", "doctors": 1 }, "geometry": { "type": "Point", "coordinates": [ -77.4928643, 39.0084635 ] } },
{ "type": "Feature", "properties": { "ID": "l291", "address": "8640 Sudley Rd Ste 303, Manassas, VA 20110", "doctors": 4 }, "geometry": { "type": "Point", "coordinates": [ -77.4892319, 38.7678683 ] } },
{ "type": "Feature", "properties": { "ID": "l292", "address": "590 15TH ST S, ARLINGTON, VA 22202", "doctors": 1 }, "geometry": { "type": "Point", "coordinates": [ -77.0552321, 38.8595024 ] } },
{ "type": "Feature", "properties": { "ID": "l293", "address": "9715 Medical Center Dr Ste 330, Rockville, MD 20850", "doctors": 4 }, "geometry": { "type": "Point", "coordinates": [ -77.1979674, 39.0991182 ] } },
{ "type": "Feature", "properties": { "ID": "l294", "address": "1860 Town Center Dr Ste 110, Reston, VA 20190", "doctors": 11 }, "geometry": { "type": "Point", "coordinates": [ -77.3663328, 38.9616928 ] } },
{ "type": "Feature", "properties": { "ID": "l295", "address": "45 Thomas Johnson Dr, Frederick, MD 21702", "doctors": 1 }, "geometry": { "type": "Point", "coordinates": [ -77.4017888, 39.4541945 ] } },
{ "type": "Feature", "properties": { "ID": "l296", "address": "526 N Henry St, Alexandria, VA 22314", "doctors": 1 }, "geometry": { "type": "Point", "coordinates": [ -77.0504573, 38.8109124 ] } },
{ "type": "Feature", "properties": { "ID": "l297", "address": "5411 W Cedar Ln Ste 108A, Bethesda, MD 20814", "doctors": 1 }, "geometry": { "type": "Point", "coordinates": [ -77.1080447, 39.0051352 ] } },
{ "type": "Feature", "properties": { "ID": "l298", "address": "24430 STONE SPRINGS BLVD, DULLES, VA 20166", "doctors": 3 }, "geometry": { "type": "Point", "coordinates": [ -77.5435779, 38.9401631 ] } },
{ "type": "Feature", "properties": { "ID": "l299", "address": "4480 King St, Alexandria, VA 22302", "doctors": 1 }, "geometry": { "type": "Point", "coordinates": [ -77.1058169, 38.8395038 ] } },
{ "type": "Feature", "properties": { "ID": "l300", "address": "307 Maple Ave W, Vienna, VA 22180", "doctors": 1 }, "geometry": { "type": "Point", "coordinates": [ -77.2718765, 38.897659 ] } },
{ "type": "Feature", "properties": { "ID": "l301", "address": "611 S Carlin Springs Rd Ste 307, Arlington, VA 22204", "doctors": 1 }, "geometry": { "type": "Point", "coordinates": [ -77.1264903, 38.8594254 ] } },
{ "type": "Feature", "properties": { "ID": "l302", "address": "1111 Spring St Ste 130, Silver Spring, MD 20910", "doctors": 2 }, "geometry": { "type": "Point", "coordinates": [ -77.0285877, 39.0002949 ] } },
{ "type": "Feature", "properties": { "ID": "l303", "address": "1160 Varnum St NE Ste 216, Washington, DC 20017", "doctors": 5 }, "geometry": { "type": "Point", "coordinates": [ -76.9917463, 38.944159 ] } },
{ "type": "Feature", "properties": { "ID": "l304", "address": "2853 Duke St Bldg 3, Alexandria, VA 22314", "doctors": 1 }, "geometry": { "type": "Point", "coordinates": [ -77.0798115, 38.8077486 ] } },
{ "type": "Feature", "properties": { "ID": "l305", "address": "163 Fort Evans Rd NE, Leesburg, VA 20176", "doctors": 1 }, "geometry": { "type": "Point", "coordinates": [ -77.5406698, 39.1088067 ] } },
{ "type": "Feature", "properties": { "ID": "l306", "address": "2301 M St NW, Washington, DC 20037", "doctors": 6 }, "geometry": { "type": "Point", "coordinates": [ -77.0503903, 38.9056376 ] } },
{ "type": "Feature", "properties": { "ID": "l307", "address": "900 23rd St NW, Washington, DC 20037", "doctors": 5 }, "geometry": { "type": "Point", "coordinates": [ -77.0507271, 38.9012445 ] } },
{ "type": "Feature", "properties": { "ID": "l308", "address": "8110 Gatehouse Rd, Falls Church, VA 22042", "doctors": 1 }, "geometry": { "type": "Point", "coordinates": [ -77.2248147, 38.8696106 ] } },
{ "type": "Feature", "properties": { "ID": "l309", "address": "12913 Alton Sq, Herndon, VA 20170", "doctors": 1 }, "geometry": { "type": "Point", "coordinates": [ -77.3935351, 38.9561286 ] } },
{ "type": "Feature", "properties": { "ID": "l310", "address": "7300 Hanover Dr Ste 104, Greenbelt, MD 20770", "doctors": 1 }, "geometry": { "type": "Point", "coordinates": [ -76.8806767, 38.9896743 ] } },
{ "type": "Feature", "properties": { "ID": "l311", "address": "4001 Brandywine St Nw Ste 300, Washington, DC 20016", "doctors": 4 }, "geometry": { "type": "Point", "coordinates": [ -77.0793893, 38.9498791 ] } },
{ "type": "Feature", "properties": { "ID": "l312", "address": "7500 Iron Bar Ln Ste 219, Gainesville, VA 20155", "doctors": 5 }, "geometry": { "type": "Point", "coordinates": [ -77.610875, 38.7955378 ] } },
{ "type": "Feature", "properties": { "ID": "l313", "address": "7915 Lake Manassas Dr Ste 205, Gainesville, VA 20155", "doctors": 6 }, "geometry": { "type": "Point", "coordinates": [ -77.6453256, 38.7858711 ] } },
{ "type": "Feature", "properties": { "ID": "l314", "address": "901 N Pitt St Ste 150, Alexandria, VA 22314", "doctors": 1 }, "geometry": { "type": "Point", "coordinates": [ -77.0422902, 38.8141245 ] } },
{ "type": "Feature", "properties": { "ID": "l316", "address": "1776 MASSACHUSETTS AVE NW, WASHINGTON, DC 20036", "doctors": 1 }, "geometry": { "type": "Point", "coordinates": [ -77.0411773, 38.908599 ] } },
{ "type": "Feature", "properties": { "ID": "l317", "address": "15005 Shady Grove Rd Ste 130, Rockville, MD 20850", "doctors": 2 }, "geometry": { "type": "Point", "coordinates": [ -77.1902691, 39.1024754 ] } },
{ "type": "Feature", "properties": { "ID": "l318", "address": "7301 Hanover Pkwy Ste B, Greenbelt, MD 20770", "doctors": 3 }, "geometry": { "type": "Point", "coordinates": [ -76.8779026, 38.9894271 ] } },
{ "type": "Feature", "properties": { "ID": "l319", "address": "1500 Forest Glen Rd, Silver Spring, MD 20910", "doctors": 9 }, "geometry": { "type": "Point", "coordinates": [ -77.0347487, 39.0147079 ] } },
{ "type": "Feature", "properties": { "ID": "l320", "address": "2900 Mercy Ln Fl 2, Cheverly, MD 20785", "doctors": 2 }, "geometry": { "type": "Point", "coordinates": [ -76.9205059, 38.9296042 ] } },
{ "type": "Feature", "properties": { "ID": "l324", "address": "24 MAPLEWOOD CT, GAITHERSBURG, MD 20877", "doctors": 1 }, "geometry": { "type": "Point", "coordinates": [ -77.1898915, 39.1461595 ] } },
{ "type": "Feature", "properties": { "ID": "l325", "address": "409 12th St SW, Washington, DC 20024", "doctors": 4 }, "geometry": { "type": "Point", "coordinates": [ -77.0284697, 38.8841568 ] } },
{ "type": "Feature", "properties": { "ID": "l327", "address": "10817 Melvin Grove Ct, Kensington, MD 20895", "doctors": 1 }, "geometry": { "type": "Point", "coordinates": [ -77.0565138, 39.0337617 ] } },
{ "type": "Feature", "properties": { "ID": "l328", "address": "PO Box, Arlington, VA 22210", "doctors": 1 }, "geometry": { "type": "Point", "coordinates": [ -77.0953439, 38.8855379 ] } },
{ "type": "Feature", "properties": { "ID": "l329", "address": "3025 Hamaker Ct Ste 330, Fairfax, VA 22031", "doctors": 3 }, "geometry": { "type": "Point", "coordinates": [ -77.2364267, 38.8671464 ] } },
{ "type": "Feature", "properties": { "ID": "l330", "address": "1060 W Perimeter Rd, Jb Andrews, MD 20762", "doctors": 3 }, "geometry": { "type": "Point", "coordinates": [ -76.8954253, 38.80871 ] } },
{ "type": "Feature", "properties": { "ID": "l332", "address": "3301 New Mexico Ave NW Ste 314, Washington, DC 20016", "doctors": 2 }, "geometry": { "type": "Point", "coordinates": [ -77.0851359, 38.9337 ] } },
{ "type": "Feature", "properties": { "ID": "l333", "address": "5 Wisconsin Cir, Chevy Chase, MD 20815", "doctors": 1 }, "geometry": { "type": "Point", "coordinates": [ -77.0847482, 38.9620298 ] } },
{ "type": "Feature", "properties": { "ID": "l334", "address": "4208 Evergreen Ln Ste 213, Annandale, VA 22003", "doctors": 5 }, "geometry": { "type": "Point", "coordinates": [ -77.1875433, 38.8329168 ] } },
{ "type": "Feature", "properties": { "ID": "l335", "address": "15200 Shady Grove Rd Ste 205, Rockville, MD 20850", "doctors": 1 }, "geometry": { "type": "Point", "coordinates": [ -77.191232, 39.1046478 ] } },
{ "type": "Feature", "properties": { "ID": "l337", "address": "901 23rd St NW, Washington, DC 20037", "doctors": 3 }, "geometry": { "type": "Point", "coordinates": [ -77.0505776, 38.9004805 ] } },
{ "type": "Feature", "properties": { "ID": "l338", "address": "1400 Forest Glen Rd Ste 500, Silver Spring, MD 20910", "doctors": 6 }, "geometry": { "type": "Point", "coordinates": [ -77.0347401, 39.0149305 ] } },
{ "type": "Feature", "properties": { "ID": "l339", "address": "7501 Surratts Rd Ste 207, Clinton, MD 20735", "doctors": 5 }, "geometry": { "type": "Point", "coordinates": [ -76.876077, 38.7494129 ] } },
{ "type": "Feature", "properties": { "ID": "l340", "address": "2701 CALVERT ST NW, WASHINGTON, DC 20008", "doctors": 1 }, "geometry": { "type": "Point", "coordinates": [ -77.0563776, 38.9235305 ] } },
{ "type": "Feature", "properties": { "ID": "l341", "address": "2300 Opitz Blvd, Woodbridge, VA 22191", "doctors": 5 }, "geometry": { "type": "Point", "coordinates": [ -77.2861861, 38.6369298 ] } },
{ "type": "Feature", "properties": { "ID": "l342", "address": "10 Saint Patricks Dr Ste 302, Waldorf, MD 20603", "doctors": 1 }, "geometry": { "type": "Point", "coordinates": [ -76.920596, 38.6180037 ] } },
{ "type": "Feature", "properties": { "ID": "l343", "address": "4040 FAIRFAX DR, ARLINGTON, VA 22203", "doctors": 1 }, "geometry": { "type": "Point", "coordinates": [ -77.1088738, 38.8820976 ] } },
{ "type": "Feature", "properties": { "ID": "l344", "address": "3700 Joseph Siewick Dr Suite 207, Fairfax, VA 22033", "doctors": 1 }, "geometry": { "type": "Point", "coordinates": [ -77.3814126, 38.8836501 ] } },
{ "type": "Feature", "properties": { "ID": "l345", "address": "1409 STANBRIDGE PL, VIENNA, VA 22182", "doctors": 1 }, "geometry": { "type": "Point", "coordinates": [ -77.2495326, 38.9360952 ] } },
{ "type": "Feature", "properties": { "ID": "l346", "address": "3905 Railroad Ave Ste 100, Fairfax, VA 22030", "doctors": 1 }, "geometry": { "type": "Point", "coordinates": [ -77.3101635, 38.8499815 ] } },
{ "type": "Feature", "properties": { "ID": "l347", "address": "22nd I St NW, Washington, DC 20037", "doctors": 1 }, "geometry": { "type": "Point", "coordinates": [ -77.0488237, 38.9021613 ] } },
{ "type": "Feature", "properties": { "ID": "l348", "address": "207 E Holly Ave Ste 215, Sterling, VA 20164", "doctors": 1 }, "geometry": { "type": "Point", "coordinates": [ -77.4012341, 38.9993193 ] } },
{ "type": "Feature", "properties": { "ID": "l349", "address": "10807 Main St Ste 500, Fairfax, VA 22030", "doctors": 1 }, "geometry": { "type": "Point", "coordinates": [ -77.3179963, 38.8501095 ] } },
{ "type": "Feature", "properties": { "ID": "l350", "address": "3800 Reservoir Rd Northwest Pasquerilla Healthcare Ctr Floor 3, Washington, DC 20007", "doctors": 1 }, "geometry": { "type": "Point", "coordinates": [ -77.0752992, 38.9120817 ] } },
{ "type": "Feature", "properties": { "ID": "l351", "address": "3020 14th St NW, Washington, DC 20009", "doctors": 1 }, "geometry": { "type": "Point", "coordinates": [ -77.032968, 38.9281612 ] } },
{ "type": "Feature", "properties": { "ID": "l352", "address": "3261 Old Washington Rd Ste 1013, Waldorf, MD 20602", "doctors": 1 }, "geometry": { "type": "Point", "coordinates": [ -76.9115225, 38.6225632 ] } },
{ "type": "Feature", "properties": { "ID": "l353", "address": "3904 12TH ST S, ARLINGTON, VA 22204", "doctors": 1 }, "geometry": { "type": "Point", "coordinates": [ -77.0970167, 38.8579919 ] } },
{ "type": "Feature", "properties": { "ID": "l354", "address": "6360 Hoadly Rd, Manassas, VA 20112", "doctors": 1 }, "geometry": { "type": "Point", "coordinates": [ -77.3960489, 38.6732461 ] } },
{ "type": "Feature", "properties": { "ID": "l355", "address": "3839 ALABAMA AVE SE, WASHINGTON, DC 20020", "doctors": 1 }, "geometry": { "type": "Point", "coordinates": [ -76.9499478, 38.8659383 ] } },
{ "type": "Feature", "properties": { "ID": "l356", "address": "14955 Shady Grove Rd Ste 125, Rockville, MD 20850", "doctors": 1 }, "geometry": { "type": "Point", "coordinates": [ -77.1920286, 39.0986296 ] } },
{ "type": "Feature", "properties": { "ID": "l357", "address": "6410 ROCKLEDGE DR, BETHESDA, MD 20817", "doctors": 3 }, "geometry": { "type": "Point", "coordinates": [ -77.1336856, 39.0239646 ] } },
{ "type": "Feature", "properties": { "ID": "l358", "address": "12111 Darnestown Rd, Gaithersburg, MD 20878", "doctors": 1 }, "geometry": { "type": "Point", "coordinates": [ -77.2507206, 39.1181638 ] } },
{ "type": "Feature", "properties": { "ID": "l359", "address": "9600 Blackwell Rd Ste 500, Rockville, MD 20850", "doctors": 1 }, "geometry": { "type": "Point", "coordinates": [ -77.1932135, 39.1007641 ] } },
{ "type": "Feature", "properties": { "ID": "l360", "address": "7115 Arrowood Rd, Bethesda, MD 20817", "doctors": 1 }, "geometry": { "type": "Point", "coordinates": [ -77.1449661, 39.0029042 ] } },
{ "type": "Feature", "properties": { "ID": "l362", "address": "810 Vermont Ave NW, Washington, DC 20420", "doctors": 2 }, "geometry": { "type": "Point", "coordinates": [ -77.0351721, 38.9008451 ] } },
{ "type": "Feature", "properties": { "ID": "l363", "address": "1453 35th St SE, Washington, DC 20020", "doctors": 1 }, "geometry": { "type": "Point", "coordinates": [ -76.9557313, 38.8715509 ] } },
{ "type": "Feature", "properties": { "ID": "l364", "address": "7503 Surratts Rd, Clinton, MD 20735", "doctors": 6 }, "geometry": { "type": "Point", "coordinates": [ -76.8757571, 38.7482634 ] } },
{ "type": "Feature", "properties": { "ID": "l365", "address": "105 Loudoun St SE, Leesburg, VA 20175", "doctors": 1 }, "geometry": { "type": "Point", "coordinates": [ -77.5632782, 39.1135292 ] } },
{ "type": "Feature", "properties": { "ID": "l366", "address": "7500 Greenway Center Dr 1120, Greenbelt, MD 20770", "doctors": 1 }, "geometry": { "type": "Point", "coordinates": [ -76.8813861, 38.9921693 ] } },
{ "type": "Feature", "properties": { "ID": "l367", "address": "8233 Old Courthouse Rd, Vienna, VA 22182", "doctors": 3 }, "geometry": { "type": "Point", "coordinates": [ -77.2309055, 38.9130233 ] } },
{ "type": "Feature", "properties": { "ID": "l368", "address": "3131 Mount Vernon Ave Ste 4A, Alexandria, VA 22305", "doctors": 1 }, "geometry": { "type": "Point", "coordinates": [ -77.0599466, 38.834052 ] } },
{ "type": "Feature", "properties": { "ID": "l369", "address": "107 E Holly Ave, Sterling, VA 20164", "doctors": 1 }, "geometry": { "type": "Point", "coordinates": [ -77.4025735, 39.0001857 ] } },
{ "type": "Feature", "properties": { "ID": "l370", "address": "915 N St SE, Washington Navy Yard, DC 20374", "doctors": 1 }, "geometry": { "type": "Point", "coordinates": [ -76.9931974, 38.8742402 ] } },
{ "type": "Feature", "properties": { "ID": "l372", "address": "7411 Riggs Rd Ste 200, Hyattsville, MD 20783", "doctors": 3 }, "geometry": { "type": "Point", "coordinates": [ -76.9786416, 38.9826766 ] } },
{ "type": "Feature", "properties": { "ID": "l373", "address": "12800 Middlebrook Rd Ste 480, Germantown, MD 20874", "doctors": 7 }, "geometry": { "type": "Point", "coordinates": [ -77.2653894, 39.1767724 ] } },
{ "type": "Feature", "properties": { "ID": "l374", "address": "8101 Hinson Farm Rd Ste 107, Alexandria, VA 22306", "doctors": 4 }, "geometry": { "type": "Point", "coordinates": [ -77.0770261, 38.7370258 ] } },
{ "type": "Feature", "properties": { "ID": "l375", "address": "9000 Rockville Pike Bldg 10, Bethesda, MD 20892", "doctors": 2 }, "geometry": { "type": "Point", "coordinates": [ -77.097943, 39.0033369 ] } },
{ "type": "Feature", "properties": { "ID": "l376", "address": "13880 Braddock Rd Ste 307, Centreville, VA 20121", "doctors": 2 }, "geometry": { "type": "Point", "coordinates": [ -77.4280911, 38.8365031 ] } },
{ "type": "Feature", "properties": { "ID": "l377", "address": "19450 Deerfield Ave Ste 245, Leesburg, VA 20176", "doctors": 2 }, "geometry": { "type": "Point", "coordinates": [ -77.4752381, 39.0770982 ] } },
{ "type": "Feature", "properties": { "ID": "l379", "address": "10401 Hospital Dr Ste 103, Clinton, MD 20735", "doctors": 2 }, "geometry": { "type": "Point", "coordinates": [ -76.8767127, 38.7461532 ] } },
{ "type": "Feature", "properties": { "ID": "l380", "address": "2440 M St NW Ste 316, Washington, DC 20037", "doctors": 1 }, "geometry": { "type": "Point", "coordinates": [ -77.053001, 38.9050503 ] } },
{ "type": "Feature", "properties": { "ID": "l381", "address": "400 W 7th St, Frederick, MD 21701", "doctors": 1 }, "geometry": { "type": "Point", "coordinates": [ -77.4146128, 39.4226989 ] } },
{ "type": "Feature", "properties": { "ID": "l382", "address": "8550 Arlington Blvd, Fairfax, VA 22031", "doctors": 2 }, "geometry": { "type": "Point", "coordinates": [ -77.2382701, 38.8661301 ] } },
{ "type": "Feature", "properties": { "ID": "l383", "address": "4225 Altamont Pl Ste 102, White Plains, MD 20695", "doctors": 2 }, "geometry": { "type": "Point", "coordinates": [ -76.9402416, 38.5962373 ] } },
{ "type": "Feature", "properties": { "ID": "l385", "address": "11445 Sunset Hills Rd, Reston, VA 20190", "doctors": 2 }, "geometry": { "type": "Point", "coordinates": [ -77.3422034, 38.949576 ] } },
{ "type": "Feature", "properties": { "ID": "l386", "address": "11801 Rockville Pike, Rockville, MD 20852", "doctors": 1 }, "geometry": { "type": "Point", "coordinates": [ -77.1129645, 39.0510879 ] } },
{ "type": "Feature", "properties": { "ID": "l387", "address": "4660 Kenmore Ave Ste 1100, Alexandria, VA 22304", "doctors": 4 }, "geometry": { "type": "Point", "coordinates": [ -77.1104463, 38.8282677 ] } },
{ "type": "Feature", "properties": { "ID": "l388", "address": "7525 Greenway Center Dr Ste 208, Greenbelt, MD 20770", "doctors": 3 }, "geometry": { "type": "Point", "coordinates": [ -76.8779551, 38.9910127 ] } },
{ "type": "Feature", "properties": { "ID": "l389", "address": "3301 Woodburn Rd Ste 307, Annandale, VA 22003", "doctors": 1 }, "geometry": { "type": "Point", "coordinates": [ -77.2255777, 38.8538519 ] } },
{ "type": "Feature", "properties": { "ID": "l390", "address": "8307 Crestridge Rd, Fairfax Station, VA 22039", "doctors": 1 }, "geometry": { "type": "Point", "coordinates": [ -77.3388585, 38.7295593 ] } },
{ "type": "Feature", "properties": { "ID": "l391", "address": "13890 Braddock Rd Ste 201, Centreville, VA 20121", "doctors": 3 }, "geometry": { "type": "Point", "coordinates": [ -77.4285834, 38.8370137 ] } },
{ "type": "Feature", "properties": { "ID": "l392", "address": "600 New Hampshire Ave NW Ste 359, Washington, DC 20037", "doctors": 1 }, "geometry": { "type": "Point", "coordinates": [ -77.0550853, 38.8977987 ] } },
{ "type": "Feature", "properties": { "ID": "l393", "address": "10905 Fort Washington Rd, Fort Washington, MD 20744", "doctors": 1 }, "geometry": { "type": "Point", "coordinates": [ -76.9949523, 38.7433989 ] } },
{ "type": "Feature", "properties": { "ID": "l394", "address": "DEPARTMENT OF STATE US, WASHINGTON, DC 20522", "doctors": 1 }, "geometry": { "type": "Point", "coordinates": [ -77.0470168, 38.8948244 ] } },
{ "type": "Feature", "properties": { "ID": "l395", "address": "7309 Hanover Pkwy Ste A&B, Greenbelt, MD 20770", "doctors": 3 }, "geometry": { "type": "Point", "coordinates": [ -76.8761998, 38.9887934 ] } },
{ "type": "Feature", "properties": { "ID": "l396", "address": "10230 New Hampshire Ave Ste 209, Silver Spring, MD 20903", "doctors": 4 }, "geometry": { "type": "Point", "coordinates": [ -76.9792201, 39.0231553 ] } },
{ "type": "Feature", "properties": { "ID": "l397", "address": "7700 Old Branch Ave, Clinton, MD 20735", "doctors": 1 }, "geometry": { "type": "Point", "coordinates": [ -76.8970014, 38.7844189 ] } },
{ "type": "Feature", "properties": { "ID": "l398", "address": "1111 Spring St, Silver Spring, MD 20910", "doctors": 1 }, "geometry": { "type": "Point", "coordinates": [ -77.0286497, 39.0003206 ] } },
{ "type": "Feature", "properties": { "ID": "l399", "address": "19517 Doctors Dr, Germantown, MD 20874", "doctors": 2 }, "geometry": { "type": "Point", "coordinates": [ -77.2689136, 39.1749433 ] } },
{ "type": "Feature", "properties": { "ID": "l400", "address": "4955 Loughboro Rd NW, Washington, DC 20016", "doctors": 1 }, "geometry": { "type": "Point", "coordinates": [ -77.0991409, 38.9336845 ] } },
{ "type": "Feature", "properties": { "ID": "l401", "address": "5454 Wisconsin Ave Ste 1005, Chevy Chase, MD 20815", "doctors": 1 }, "geometry": { "type": "Point", "coordinates": [ -77.0871108, 38.9626554 ] } },
{ "type": "Feature", "properties": { "ID": "l402", "address": "11340 Pembrooke Sq Ste 203, Waldorf, MD 20603", "doctors": 3 }, "geometry": { "type": "Point", "coordinates": [ -76.9163847, 38.6180739 ] } },
{ "type": "Feature", "properties": { "ID": "l403", "address": "3998 FAIR RIDGE DR, FAIRFAX, VA 22033", "doctors": 2 }, "geometry": { "type": "Point", "coordinates": [ -77.369292, 38.871838 ] } },
{ "type": "Feature", "properties": { "ID": "l404", "address": "45305 Catalina Ct Ste 103, Sterling, VA 20166", "doctors": 1 }, "geometry": { "type": "Point", "coordinates": [ -77.4335325, 38.9775097 ] } },
{ "type": "Feature", "properties": { "ID": "l405", "address": "10721 Main St Ste 1300, Fairfax, VA 22030", "doctors": 2 }, "geometry": { "type": "Point", "coordinates": [ -77.316275, 38.8491786 ] } },
{ "type": "Feature", "properties": { "ID": "l407", "address": "8304 CENTERBROOK PL, ALEXANDRIA, VA 22308", "doctors": 1 }, "geometry": { "type": "Point", "coordinates": [ -77.0717588, 38.731211 ] } },
{ "type": "Feature", "properties": { "ID": "l408", "address": "1800 Town Center Dr Ste 419, Reston, VA 20190", "doctors": 6 }, "geometry": { "type": "Point", "coordinates": [ -77.3648123, 38.9635177 ] } },
{ "type": "Feature", "properties": { "ID": "l410", "address": "2871 Duke St Bldg 1, Alexandria, VA 22314", "doctors": 1 }, "geometry": { "type": "Point", "coordinates": [ -77.0804229, 38.8074128 ] } },
{ "type": "Feature", "properties": { "ID": "l411", "address": "7703 Barlowe Rd, Hyattsville, MD 20785", "doctors": 1 }, "geometry": { "type": "Point", "coordinates": [ -76.873782, 38.9180406 ] } },
{ "type": "Feature", "properties": { "ID": "l412", "address": "1830 Town Center Dr, Reston, VA 20190", "doctors": 2 }, "geometry": { "type": "Point", "coordinates": [ -77.3650802, 38.9631609 ] } },
{ "type": "Feature", "properties": { "ID": "l413", "address": "61 Thomas Johnson Dr, Frederick, MD 21702", "doctors": 4 }, "geometry": { "type": "Point", "coordinates": [ -77.4023269, 39.4523421 ] } },
{ "type": "Feature", "properties": { "ID": "l414", "address": "2807 Duke St, Alexandria, VA 22314", "doctors": 1 }, "geometry": { "type": "Point", "coordinates": [ -77.0786836, 38.8075939 ] } },
{ "type": "Feature", "properties": { "ID": "l415", "address": "1715 N George Mason Dr Ste 404, Arlington, VA 22205", "doctors": 1 }, "geometry": { "type": "Point", "coordinates": [ -77.128087, 38.8904777 ] } },
{ "type": "Feature", "properties": { "ID": "l417", "address": "3701 S George Mason Dr Unit C1N, Falls Church, VA 22041", "doctors": 1 }, "geometry": { "type": "Point", "coordinates": [ -77.1143467, 38.8438352 ] } },
{ "type": "Feature", "properties": { "ID": "l418", "address": "8316 Arlington Blvd, Fairfax, VA 22031", "doctors": 1 }, "geometry": { "type": "Point", "coordinates": [ -77.2323089, 38.8664376 ] } },
{ "type": "Feature", "properties": { "ID": "l420", "address": "10801 Lockwood Dr Ste 110, Silver Spring, MD 20901", "doctors": 1 }, "geometry": { "type": "Point", "coordinates": [ -77.0025487, 39.0327549 ] } },
{ "type": "Feature", "properties": { "ID": "l422", "address": "2812 29th Pl NW, Washington, DC 20008", "doctors": 1 }, "geometry": { "type": "Point", "coordinates": [ -77.0588526, 38.9245525 ] } },
{ "type": "Feature", "properties": { "ID": "l424", "address": "6939 Georgia Ave NW, Washington, DC 20012", "doctors": 1 }, "geometry": { "type": "Point", "coordinates": [ -77.0265352, 38.9749547 ] } },
{ "type": "Feature", "properties": { "ID": "l427", "address": "13960 Baltimore Ave, Laurel, MD 20707", "doctors": 1 }, "geometry": { "type": "Point", "coordinates": [ -76.8648359, 39.0817075 ] } },
{ "type": "Feature", "properties": { "ID": "l428", "address": "3206 Tower Oaks Blvd Ste 100, Rockville, MD 20852", "doctors": 1 }, "geometry": { "type": "Point", "coordinates": [ -77.1503139, 39.0592271 ] } },
{ "type": "Feature", "properties": { "ID": "l430", "address": "5915 Greenbelt Rd, Berwyn Heights, MD 20740", "doctors": 2 }, "geometry": { "type": "Point", "coordinates": [ -76.9127616, 38.9977417 ] } },
{ "type": "Feature", "properties": { "ID": "l431", "address": "1544 YOUNGS POINT PL, HERNDON, VA 20170", "doctors": 1 }, "geometry": { "type": "Point", "coordinates": [ -77.388307, 38.99188 ] } },
{ "type": "Feature", "properties": { "ID": "l432", "address": "7239 Hanover Pkwy Ste A, Greenbelt, MD 20770", "doctors": 1 }, "geometry": { "type": "Point", "coordinates": [ -76.8759479, 38.9887724 ] } },
{ "type": "Feature", "properties": { "ID": "l433", "address": "12240 Indian Creek Ct Ste 130A, Beltsville, MD 20705", "doctors": 4 }, "geometry": { "type": "Point", "coordinates": [ -76.8975868, 39.0581951 ] } },
{ "type": "Feature", "properties": { "ID": "l434", "address": "24801 PINEBROOK RD, CHANTILLY, VA 20152", "doctors": 2 }, "geometry": { "type": "Point", "coordinates": [ -77.5292932, 38.9324675 ] } },
{ "type": "Feature", "properties": { "ID": "l436", "address": "4601 Fairfax Dr Ste 1200, Arlington, VA 22203", "doctors": 1 }, "geometry": { "type": "Point", "coordinates": [ -77.1180474, 38.8826504 ] } },
{ "type": "Feature", "properties": { "ID": "l437", "address": "3975 Saint Charles Pkwy, Waldorf, MD 20602", "doctors": 2 }, "geometry": { "type": "Point", "coordinates": [ -76.8815994, 38.61374 ] } },
{ "type": "Feature", "properties": { "ID": "l439", "address": "5021 Seminary Rd, Alexandria, VA 22311", "doctors": 1 }, "geometry": { "type": "Point", "coordinates": [ -77.1149424, 38.8338944 ] } },
{ "type": "Feature", "properties": { "ID": "l441", "address": "3620 JOSEPH SIEWICK DR, FAIRFAX, VA 22033", "doctors": 2 }, "geometry": { "type": "Point", "coordinates": [ -77.3809803, 38.8850463 ] } },
{ "type": "Feature", "properties": { "ID": "l442", "address": "411 CHESAPEAKE DR, GREAT FALLS, VA 22066", "doctors": 1 }, "geometry": { "type": "Point", "coordinates": [ -77.2727968, 39.0113267 ] } },
{ "type": "Feature", "properties": { "ID": "l443", "address": "6701 Democracy Blvd Ste 300, Bethesda, MD 20817", "doctors": 1 }, "geometry": { "type": "Point", "coordinates": [ -77.1367879, 39.0224367 ] } },
{ "type": "Feature", "properties": { "ID": "l444", "address": "3289 WOODBURN RD, ANNANDALE, VA 22003", "doctors": 2 }, "geometry": { "type": "Point", "coordinates": [ -77.2235404, 38.8540533 ] } },
{ "type": "Feature", "properties": { "ID": "l445", "address": "14605 Potomac Branch Dr Ste 210, Woodbridge, VA 22191", "doctors": 1 }, "geometry": { "type": "Point", "coordinates": [ -77.2830863, 38.6331209 ] } },
{ "type": "Feature", "properties": { "ID": "l446", "address": "11804 Lisborough Rd, Bowie, MD 20720", "doctors": 1 }, "geometry": { "type": "Point", "coordinates": [ -76.8003471, 38.955518 ] } },
{ "type": "Feature", "properties": { "ID": "l448", "address": "10401 Old Georgetown Rd Ste 307, Bethesda, MD 20814", "doctors": 1 }, "geometry": { "type": "Point", "coordinates": [ -77.1251322, 39.02646 ] } },
{ "type": "Feature", "properties": { "ID": "l449", "address": "3025 Hamaker Ct Ste 360, Fairfax, VA 22031", "doctors": 1 }, "geometry": { "type": "Point", "coordinates": [ -77.2364634, 38.8671644 ] } },
{ "type": "Feature", "properties": { "ID": "l451", "address": "8998 Lorton Station Blvd Ste A, Lorton, VA 22079", "doctors": 6 }, "geometry": { "type": "Point", "coordinates": [ -77.2136157, 38.7137306 ] } },
{ "type": "Feature", "properties": { "ID": "l452", "address": "4905 Daisey Creek Ter, Beltsville, MD 20705", "doctors": 1 }, "geometry": { "type": "Point", "coordinates": [ -76.9227346, 39.0631572 ] } },
{ "type": "Feature", "properties": { "ID": "l453", "address": "4121 Minnesota Ave NE, Washington, DC 20019", "doctors": 1 }, "geometry": { "type": "Point", "coordinates": [ -76.9463212, 38.8982166 ] } },
{ "type": "Feature", "properties": { "ID": "l454", "address": "8622 Lee Hwy Ste B, Fairfax, VA 22031", "doctors": 2 }, "geometry": { "type": "Point", "coordinates": [ -77.2433666, 38.8739449 ] } },
{ "type": "Feature", "properties": { "ID": "l455", "address": "4208 KAYWOOD DR, MOUNT RAINIER, MD 20712", "doctors": 1 }, "geometry": { "type": "Point", "coordinates": [ -76.9712061, 38.941852 ] } },
{ "type": "Feature", "properties": { "ID": "l456", "address": "1500 Galen St SE, Washington, DC 20020", "doctors": 1 }, "geometry": { "type": "Point", "coordinates": [ -76.9836127, 38.8631616 ] } },
{ "type": "Feature", "properties": { "ID": "l457", "address": "2440 M St NW Ste 501, Washington, DC 20037", "doctors": 2 }, "geometry": { "type": "Point", "coordinates": [ -77.0522153, 38.9048206 ] } },
{ "type": "Feature", "properties": { "ID": "l458", "address": "800 S Frederick Ave Ste 213, Gaithersburg, MD 20877", "doctors": 1 }, "geometry": { "type": "Point", "coordinates": [ -77.1825751, 39.1250238 ] } },
{ "type": "Feature", "properties": { "ID": "l460", "address": "2555 Pennsylvania Ave NW, Washington, DC 20037", "doctors": 1 }, "geometry": { "type": "Point", "coordinates": [ -77.0540178, 38.9046895 ] } },
{ "type": "Feature", "properties": { "ID": "l461", "address": "6178 Oxon Hill Rd, Oxon Hill, MD 20745", "doctors": 1 }, "geometry": { "type": "Point", "coordinates": [ -76.9808227, 38.8040417 ] } },
{ "type": "Feature", "properties": { "ID": "l462", "address": "9501 Farrell Rd Ste GC11, Fort Belvoir, VA 22060", "doctors": 2 }, "geometry": { "type": "Point", "coordinates": [ -77.1373414, 38.6998505 ] } },
{ "type": "Feature", "properties": { "ID": "l463", "address": "6201 Annapolis Rd, Landover Hills, MD 20784", "doctors": 1 }, "geometry": { "type": "Point", "coordinates": [ -76.9105103, 38.9383327 ] } },
{ "type": "Feature", "properties": { "ID": "l465", "address": "10521 Rosehaven St Ste LL100, Fairfax, VA 22030", "doctors": 6 }, "geometry": { "type": "Point", "coordinates": [ -77.308191, 38.875901 ] } },
{ "type": "Feature", "properties": { "ID": "l466", "address": "9063 Shady Grove Ct, Gaithersburg, MD 20877", "doctors": 1 }, "geometry": { "type": "Point", "coordinates": [ -77.1837207, 39.1194101 ] } },
{ "type": "Feature", "properties": { "ID": "l467", "address": "7335 Hanover Pkwy Ste B, Greenbelt, MD 20770", "doctors": 1 }, "geometry": { "type": "Point", "coordinates": [ -76.8750439, 38.9889763 ] } },
{ "type": "Feature", "properties": { "ID": "l468", "address": "10701 Rosemary Dr, Manassas, VA 20109", "doctors": 6 }, "geometry": { "type": "Point", "coordinates": [ -77.5170643, 38.7907893 ] } },
{ "type": "Feature", "properties": { "ID": "l469", "address": "8302 Old Courthouse Rd Ste A, Vienna, VA 22182", "doctors": 1 }, "geometry": { "type": "Point", "coordinates": [ -77.231321, 38.9147999 ] } },
{ "type": "Feature", "properties": { "ID": "l470", "address": "46179 Westlake Dr Ste 240, Sterling, VA 20165", "doctors": 2 }, "geometry": { "type": "Point", "coordinates": [ -77.4021741, 39.0340083 ] } },
{ "type": "Feature", "properties": { "ID": "l471", "address": "11721 Woodmore Rd Ste 100, Bowie, MD 20721", "doctors": 4 }, "geometry": { "type": "Point", "coordinates": [ -76.8021272, 38.9205085 ] } },
{ "type": "Feature", "properties": { "ID": "l472", "address": "11128 Norlee Dr, Silver Spring, MD 20902", "doctors": 1 }, "geometry": { "type": "Point", "coordinates": [ -77.0421215, 39.0387506 ] } },
{ "type": "Feature", "properties": { "ID": "l473", "address": "1050 W Perimeter Rd Ste FB59, Andrews Afb, MD 20762", "doctors": 4 }, "geometry": { "type": "Point", "coordinates": [ -76.8957855, 38.8089116 ] } },
{ "type": "Feature", "properties": { "ID": "l474", "address": "2851 SEABISCUIT DR, OLNEY, MD 20832", "doctors": 1 }, "geometry": { "type": "Point", "coordinates": [ -77.0612359, 39.1281433 ] } },
{ "type": "Feature", "properties": { "ID": "l475", "address": "2750 14th St NW Ste C, Washington, DC 20009", "doctors": 1 }, "geometry": { "type": "Point", "coordinates": [ -77.0326532, 38.9252777 ] } },
{ "type": "Feature", "properties": { "ID": "l476", "address": "2101 Medical Park Dr Ste 200, Silver Spring, MD 20902", "doctors": 1 }, "geometry": { "type": "Point", "coordinates": [ -77.0433652, 39.0241603 ] } },
{ "type": "Feature", "properties": { "ID": "l477", "address": "6020 Richmond Hwy Ste 102, Alexandria, VA 22303", "doctors": 1 }, "geometry": { "type": "Point", "coordinates": [ -77.06935, 38.786644 ] } },
{ "type": "Feature", "properties": { "ID": "l478", "address": "75 Thomas Johnson Dr Ste J, Frederick, MD 21702", "doctors": 1 }, "geometry": { "type": "Point", "coordinates": [ -77.4062595, 39.4475441 ] } },
{ "type": "Feature", "properties": { "ID": "l480", "address": "1500 N BEAUREGARD ST, ALEXANDRIA, VA 22311", "doctors": 3 }, "geometry": { "type": "Point", "coordinates": [ -77.124364, 38.8323731 ] } },
{ "type": "Feature", "properties": { "ID": "l482", "address": "3912 Georgia Ave NW, Washington, DC 20011", "doctors": 1 }, "geometry": { "type": "Point", "coordinates": [ -77.0250176, 38.9391777 ] } },
{ "type": "Feature", "properties": { "ID": "l484", "address": "5550 Friendship Blvd Ste 210, Chevy Chase, MD 20815", "doctors": 3 }, "geometry": { "type": "Point", "coordinates": [ -77.0904516, 38.9639187 ] } },
{ "type": "Feature", "properties": { "ID": "l485", "address": "765 Kenilworth Ter NE, Washington, DC 20019", "doctors": 4 }, "geometry": { "type": "Point", "coordinates": [ -76.9474721, 38.900373 ] } },
{ "type": "Feature", "properties": { "ID": "l487", "address": "1400 Forest Glen Rd Ste 525, Silver Spring, MD 20910", "doctors": 9 }, "geometry": { "type": "Point", "coordinates": [ -77.0354097, 39.0150578 ] } },
{ "type": "Feature", "properties": { "ID": "l488", "address": "230 Dill Ave, Frederick, MD 21701", "doctors": 1 }, "geometry": { "type": "Point", "coordinates": [ -77.414142, 39.4191212 ] } },
{ "type": "Feature", "properties": { "ID": "l489", "address": "24430 Stone Springs Blvd Unit 215, Dulles, VA 20166", "doctors": 2 }, "geometry": { "type": "Point", "coordinates": [ -77.543581, 38.9401558 ] } },
{ "type": "Feature", "properties": { "ID": "l490", "address": "6100 Executive Blvd, Rockville, MD 20852", "doctors": 2 }, "geometry": { "type": "Point", "coordinates": [ -77.1239773, 39.048035 ] } },
{ "type": "Feature", "properties": { "ID": "l491", "address": "3650 Joseph Siewick Dr, Fairfax, VA 22033", "doctors": 1 }, "geometry": { "type": "Point", "coordinates": [ -77.3805383, 38.8842509 ] } },
{ "type": "Feature", "properties": { "ID": "l492", "address": "602 Battery Ter NE, Leesburg, VA 20176", "doctors": 1 }, "geometry": { "type": "Point", "coordinates": [ -77.5284198, 39.1142698 ] } },
{ "type": "Feature", "properties": { "ID": "l493", "address": "2944 Hunter Mill Rd Ste 101, Oakton, VA 22124", "doctors": 1 }, "geometry": { "type": "Point", "coordinates": [ -77.3001182, 38.8839487 ] } },
{ "type": "Feature", "properties": { "ID": "l494", "address": "111 Michigan Ave NW, Washington, DC 20010", "doctors": 1 }, "geometry": { "type": "Point", "coordinates": [ -77.014524, 38.9271737 ] } },
{ "type": "Feature", "properties": { "ID": "l495", "address": "11315 Pembrooke Sq, Waldorf, MD 20603", "doctors": 1 }, "geometry": { "type": "Point", "coordinates": [ -76.916904, 38.617263 ] } },
{ "type": "Feature", "properties": { "ID": "l496", "address": "9711 Medical Center Dr Ste 109, Rockville, MD 20850", "doctors": 3 }, "geometry": { "type": "Point", "coordinates": [ -77.1976308, 39.0997957 ] } },
{ "type": "Feature", "properties": { "ID": "l498", "address": "3023 Hamaker Ct Ste 210, Fairfax, VA 22031", "doctors": 9 }, "geometry": { "type": "Point", "coordinates": [ -77.2357239, 38.8684387 ] } },
{ "type": "Feature", "properties": { "ID": "l499", "address": "6564 Loisdale Ct Ste 100, Springfield, VA 22150", "doctors": 4 }, "geometry": { "type": "Point", "coordinates": [ -77.1792628, 38.7754555 ] } },
{ "type": "Feature", "properties": { "ID": "l501", "address": "1140 Varnum St NE Ste 20, Washington, DC 20017", "doctors": 3 }, "geometry": { "type": "Point", "coordinates": [ -76.9920551, 38.9437145 ] } },
{ "type": "Feature", "properties": { "ID": "l503", "address": "3023 Hamaker Ct Ste 300, Fairfax, VA 22031", "doctors": 1 }, "geometry": { "type": "Point", "coordinates": [ -77.2357239, 38.8684325 ] } },
{ "type": "Feature", "properties": { "ID": "l505", "address": "1701 McCormick Dr, Upper Marlboro, MD 20774", "doctors": 1 }, "geometry": { "type": "Point", "coordinates": [ -76.8455189, 38.9133236 ] } },
{ "type": "Feature", "properties": { "ID": "l506", "address": "7610 Pennsylvania Ave Ste 305, District Heights, MD 20747", "doctors": 2 }, "geometry": { "type": "Point", "coordinates": [ -76.8746532, 38.8418221 ] } },
{ "type": "Feature", "properties": { "ID": "l507", "address": "600 Army Navy Dr, Arlington, VA 22202", "doctors": 1 }, "geometry": { "type": "Point", "coordinates": [ -77.0574333, 38.8644615 ] } },
{ "type": "Feature", "properties": { "ID": "l508", "address": "142 Swanton Ln, Gaithersburg, MD 20878", "doctors": 1 }, "geometry": { "type": "Point", "coordinates": [ -77.2271251, 39.1226495 ] } },
{ "type": "Feature", "properties": { "ID": "l509", "address": "7190 Crestwood Blvd Ste 100, Frederick, MD 21703", "doctors": 1 }, "geometry": { "type": "Point", "coordinates": [ -77.4155959, 39.387153 ] } },
{ "type": "Feature", "properties": { "ID": "l510", "address": "14904 JEFFERSON DAVIS HWY, WOODBRIDGE, VA 22191", "doctors": 3 }, "geometry": { "type": "Point", "coordinates": [ -77.2752648, 38.6298136 ] } },
{ "type": "Feature", "properties": { "ID": "l511", "address": "16312 EPSILON CT, BOWIE, MD 20716", "doctors": 1 }, "geometry": { "type": "Point", "coordinates": [ -76.7238444, 38.935098 ] } },
{ "type": "Feature", "properties": { "ID": "l512", "address": "8252 ROXBOROUGH LOOP, GAINESVILLE, VA 20155", "doctors": 1 }, "geometry": { "type": "Point", "coordinates": [ -77.6500777, 38.7763834 ] } },
{ "type": "Feature", "properties": { "ID": "l513", "address": "6275 Franconia Rd, Alexandria, VA 22310", "doctors": 1 }, "geometry": { "type": "Point", "coordinates": [ -77.1546528, 38.7797721 ] } },
{ "type": "Feature", "properties": { "ID": "l515", "address": "44035 RIVERSIDE PKWY, LEESBURG, VA 20176", "doctors": 4 }, "geometry": { "type": "Point", "coordinates": [ -77.4784839, 39.0752456 ] } },
{ "type": "Feature", "properties": { "ID": "l517", "address": "2026 Opitz Blvd Ste A, Woodbridge, VA 22191", "doctors": 2 }, "geometry": { "type": "Point", "coordinates": [ -77.2746149, 38.635969 ] } },
{ "type": "Feature", "properties": { "ID": "l518", "address": "5241 Kaywood Ct, Fairfax, VA 22032", "doctors": 1 }, "geometry": { "type": "Point", "coordinates": [ -77.305002, 38.8106094 ] } },
{ "type": "Feature", "properties": { "ID": "l519", "address": "900 S Washington St Ste 300, Falls Church, VA 22046", "doctors": 2 }, "geometry": { "type": "Point", "coordinates": [ -77.1830437, 38.8792809 ] } },
{ "type": "Feature", "properties": { "ID": "l521", "address": "6707 Old Dominion Dr Ste 300, McLean, VA 22101", "doctors": 2 }, "geometry": { "type": "Point", "coordinates": [ -77.1759864, 38.9329919 ] } },
{ "type": "Feature", "properties": { "ID": "l522", "address": "5802 NICHOLSON LN, ROCKVILLE, MD 20852", "doctors": 1 }, "geometry": { "type": "Point", "coordinates": [ -77.1157171, 39.0449191 ] } },
{ "type": "Feature", "properties": { "ID": "l523", "address": "5801 NICHOLSON LN, NORTH BETHESDA, MD 20852", "doctors": 1 }, "geometry": { "type": "Point", "coordinates": [ -77.1140883, 39.0458073 ] } },
{ "type": "Feature", "properties": { "ID": "l524", "address": "9701 Medical Center Dr, Rockville, MD 20850", "doctors": 1 }, "geometry": { "type": "Point", "coordinates": [ -77.1962317, 39.1009342 ] } },
{ "type": "Feature", "properties": { "ID": "l525", "address": "4920 Elm St Ste 225, Bethesda, MD 20814", "doctors": 3 }, "geometry": { "type": "Point", "coordinates": [ -77.0970504, 38.9819139 ] } },
{ "type": "Feature", "properties": { "ID": "l526", "address": "14300 Gallant Fox Ln, Bowie, MD 20715", "doctors": 1 }, "geometry": { "type": "Point", "coordinates": [ -76.7577969, 38.9730943 ] } },
{ "type": "Feature", "properties": { "ID": "l527", "address": "5917 Griffith Rd, Gaithersburg, MD 20882", "doctors": 1 }, "geometry": { "type": "Point", "coordinates": [ -77.120347, 39.2325067 ] } },
{ "type": "Feature", "properties": { "ID": "l528", "address": "6161 Tuckerman Ln, Rockville, MD 20852", "doctors": 1 }, "geometry": { "type": "Point", "coordinates": [ -77.1299777, 39.0360692 ] } },
{ "type": "Feature", "properties": { "ID": "l529", "address": "7229 Hanover Pkwy, Greenbelt, MD 20770", "doctors": 1 }, "geometry": { "type": "Point", "coordinates": [ -76.8767566, 38.988853 ] } },
{ "type": "Feature", "properties": { "ID": "l530", "address": "10777 Main St Ste 211, Fairfax, VA 22030", "doctors": 1 }, "geometry": { "type": "Point", "coordinates": [ -77.3175002, 38.8494333 ] } },
{ "type": "Feature", "properties": { "ID": "l531", "address": "8010 Towers Crescent Dr Fl 5, Vienna, VA 22182", "doctors": 3 }, "geometry": { "type": "Point", "coordinates": [ -77.2208457, 38.9146383 ] } },
{ "type": "Feature", "properties": { "ID": "l532", "address": "9711 Medical Center Dr Ste 214, Rockville, MD 20850", "doctors": 1 }, "geometry": { "type": "Point", "coordinates": [ -77.1976692, 39.0998134 ] } },
{ "type": "Feature", "properties": { "ID": "l534", "address": "1200 N Howard St, Alexandria, VA 22304", "doctors": 1 }, "geometry": { "type": "Point", "coordinates": [ -77.1054584, 38.8218315 ] } },
{ "type": "Feature", "properties": { "ID": "l535", "address": "4350 E West Hwy, Bethesda, MD 20814", "doctors": 1 }, "geometry": { "type": "Point", "coordinates": [ -77.0891375, 38.9849556 ] } },
{ "type": "Feature", "properties": { "ID": "l536", "address": "9734 BEMAN WOODS WAY, POTOMAC, MD 20854", "doctors": 1 }, "geometry": { "type": "Point", "coordinates": [ -77.2005216, 38.9874237 ] } },
{ "type": "Feature", "properties": { "ID": "l537", "address": "5710 Silver Hill Rd, District Heights, MD 20747", "doctors": 1 }, "geometry": { "type": "Point", "coordinates": [ -76.9103587, 38.8542787 ] } },
{ "type": "Feature", "properties": { "ID": "l538", "address": "1156 15th St NW Ste 700, Washington, DC 20005", "doctors": 1 }, "geometry": { "type": "Point", "coordinates": [ -77.0349329, 38.905368 ] } },
{ "type": "Feature", "properties": { "ID": "l539", "address": "9135 Piscataway Rd Ste 420, Clinton, MD 20735", "doctors": 1 }, "geometry": { "type": "Point", "coordinates": [ -76.9029419, 38.7650868 ] } },
{ "type": "Feature", "properties": { "ID": "l540", "address": "8955 Edmonston Rd Ste F, Greenbelt, MD 20770", "doctors": 1 }, "geometry": { "type": "Point", "coordinates": [ -76.9005026, 38.9974188 ] } },
{ "type": "Feature", "properties": { "ID": "l541", "address": "8908 Riggs Rd, Hyattsville, MD 20783", "doctors": 2 }, "geometry": { "type": "Point", "coordinates": [ -76.9738022, 39.0017807 ] } },
{ "type": "Feature", "properties": { "ID": "l542", "address": "3833 Fairfax Dr Ste 360, Arlington, VA 22203", "doctors": 2 }, "geometry": { "type": "Point", "coordinates": [ -77.1063867, 38.8827735 ] } },
{ "type": "Feature", "properties": { "ID": "l543", "address": "6707 Old Dominion Dr, McLean, VA 22101", "doctors": 1 }, "geometry": { "type": "Point", "coordinates": [ -77.1759708, 38.9329719 ] } },
{ "type": "Feature", "properties": { "ID": "l544", "address": "19851 Observation Dr Ste 201, Germantown, MD 20876", "doctors": 1 }, "geometry": { "type": "Point", "coordinates": [ -77.2429401, 39.1826014 ] } },
{ "type": "Feature", "properties": { "ID": "l545", "address": "50 S DRIVE MSC 8012, BETHESDA, MD 20892", "doctors": 1 }, "geometry": { "type": "Point", "coordinates": [ -77.1016303, 38.9999957 ] } },
{ "type": "Feature", "properties": { "ID": "l546", "address": "6900 Georgia Ave Nw, Washington, DC 20307", "doctors": 3 }, "geometry": { "type": "Point", "coordinates": [ -77.0294113, 38.9765502 ] } },
{ "type": "Feature", "properties": { "ID": "l547", "address": "1145 19th St NW Ste 200 Ste 204, Washington, DC 20036", "doctors": 2 }, "geometry": { "type": "Point", "coordinates": [ -77.0428637, 38.905041 ] } },
{ "type": "Feature", "properties": { "ID": "l548", "address": "5550 Friendship Blvd, Chevy Chase, MD 20815", "doctors": 1 }, "geometry": { "type": "Point", "coordinates": [ -77.0904414, 38.9638935 ] } },
{ "type": "Feature", "properties": { "ID": "l549", "address": "1234 19th St NW, Washington, DC 20036", "doctors": 1 }, "geometry": { "type": "Point", "coordinates": [ -77.0437183, 38.9068626 ] } },
{ "type": "Feature", "properties": { "ID": "l550", "address": "650 Pennsylvania Ave SE Ste C100, Washington, DC 20003", "doctors": 2 }, "geometry": { "type": "Point", "coordinates": [ -76.9969321, 38.885379 ] } },
{ "type": "Feature", "properties": { "ID": "l551", "address": "15005 Shady Grove Rd Ste 110, Rockville, MD 20850", "doctors": 1 }, "geometry": { "type": "Point", "coordinates": [ -77.1904565, 39.1024838 ] } },
{ "type": "Feature", "properties": { "ID": "l553", "address": "9470 Annapolis Rd Ste 301, Lanham, MD 20706", "doctors": 1 }, "geometry": { "type": "Point", "coordinates": [ -76.8410587, 38.9656088 ] } },
{ "type": "Feature", "properties": { "ID": "l554", "address": "77 Thomas Johnson Dr Ste H, Frederick, MD 21702", "doctors": 8 }, "geometry": { "type": "Point", "coordinates": [ -77.4062729, 39.4467214 ] } },
{ "type": "Feature", "properties": { "ID": "l555", "address": "44121 Harry Byrd Hwy Ste 285, Ashburn, VA 20147", "doctors": 1 }, "geometry": { "type": "Point", "coordinates": [ -77.4836015, 39.0670709 ] } },
{ "type": "Feature", "properties": { "ID": "l556", "address": "2961A HUNTER MILL RD, OAKTON, VA 22124", "doctors": 1 }, "geometry": { "type": "Point", "coordinates": [ -77.3005374, 38.8839475 ] } },
{ "type": "Feature", "properties": { "ID": "l557", "address": "5001 Nebraska Ave NW, Washington, DC 20008", "doctors": 1 }, "geometry": { "type": "Point", "coordinates": [ -77.070974, 38.954952 ] } },
{ "type": "Feature", "properties": { "ID": "l558", "address": "9000 Rockville Pike, Bethesda, MD 20892", "doctors": 5 }, "geometry": { "type": "Point", "coordinates": [ -77.0979496, 39.0032975 ] } },
{ "type": "Feature", "properties": { "ID": "l560", "address": "6000 Executive Blvd Ste 300, Rockville, MD 20852", "doctors": 1 }, "geometry": { "type": "Point", "coordinates": [ -77.1205263, 39.0480185 ] } },
{ "type": "Feature", "properties": { "ID": "l561", "address": "2296 Opitz Blvd Ste 250, Woodbridge, VA 22191", "doctors": 1 }, "geometry": { "type": "Point", "coordinates": [ -77.2850628, 38.6374487 ] } },
{ "type": "Feature", "properties": { "ID": "l562", "address": "19465 Deerfield Ave Ste 205, Leesburg, VA 20176", "doctors": 3 }, "geometry": { "type": "Point", "coordinates": [ -77.4812314, 39.0787104 ] } },
{ "type": "Feature", "properties": { "ID": "l563", "address": "46161 Westlake Dr Ste 210, Potomac Falls, VA 20165", "doctors": 1 }, "geometry": { "type": "Point", "coordinates": [ -77.4034516, 39.0354648 ] } },
{ "type": "Feature", "properties": { "ID": "l564", "address": "8720 Georgia Ave Ste 1005, Silver Spring, MD 20910", "doctors": 1 }, "geometry": { "type": "Point", "coordinates": [ -77.0303419, 38.997785 ] } },
{ "type": "Feature", "properties": { "ID": "l565", "address": "7701 Greenbelt Rd Ste 503, Greenbelt, MD 20770", "doctors": 3 }, "geometry": { "type": "Point", "coordinates": [ -76.8738883, 38.993209 ] } },
{ "type": "Feature", "properties": { "ID": "l566", "address": "10110 Molecular Dr Ste 218, Rockville, MD 20850", "doctors": 2 }, "geometry": { "type": "Point", "coordinates": [ -77.210042, 39.0920282 ] } },
{ "type": "Feature", "properties": { "ID": "l567", "address": "PO BOX 2130, GERMANTOWN, MD 20875", "doctors": 1 }, "geometry": { "type": "Point", "coordinates": [ -77.27, 39.17 ] } },
{ "type": "Feature", "properties": { "ID": "l568", "address": "9901 Medical Center Dr, Rockville, MD 20850", "doctors": 1 }, "geometry": { "type": "Point", "coordinates": [ -77.1973098, 39.0973719 ] } },
{ "type": "Feature", "properties": { "ID": "l569", "address": "407 N Washington St, Falls Church, VA 22046", "doctors": 1 }, "geometry": { "type": "Point", "coordinates": [ -77.1657267, 38.8855905 ] } },
{ "type": "Feature", "properties": { "ID": "l571", "address": "307 Maple Ave W Ste C, Vienna, VA 22180", "doctors": 1 }, "geometry": { "type": "Point", "coordinates": [ -77.2712635, 38.8975998 ] } },
{ "type": "Feature", "properties": { "ID": "l572", "address": "2300 E St NW, Washington, DC 20372", "doctors": 1 }, "geometry": { "type": "Point", "coordinates": [ -77.050838, 38.8959814 ] } },
{ "type": "Feature", "properties": { "ID": "l574", "address": "20410 Observation Dr Ste 210, Germantown, MD 20876", "doctors": 1 }, "geometry": { "type": "Point", "coordinates": [ -77.2489331, 39.191602 ] } },
{ "type": "Feature", "properties": { "ID": "l575", "address": "3301 Woodburn Rd Ste 102, Annandale, VA 22003", "doctors": 2 }, "geometry": { "type": "Point", "coordinates": [ -77.2255666, 38.8538306 ] } },
{ "type": "Feature", "properties": { "ID": "l576", "address": "10801 Lockwood Dr Ste 300, Silver Spring, MD 20901", "doctors": 1 }, "geometry": { "type": "Point", "coordinates": [ -77.0025562, 39.0327599 ] } },
{ "type": "Feature", "properties": { "ID": "l577", "address": "1627 Kenilworth Ave NE, Washington, DC 20019", "doctors": 1 }, "geometry": { "type": "Point", "coordinates": [ -76.9339447, 38.9116973 ] } },
{ "type": "Feature", "properties": { "ID": "l578", "address": "15001 Shady Grove Rd Ste 400, Rockville, MD 20850", "doctors": 3 }, "geometry": { "type": "Point", "coordinates": [ -77.190619, 39.1018316 ] } },
{ "type": "Feature", "properties": { "ID": "l579", "address": "8116 Good Luck Rd Ste 110, Lanham, MD 20706", "doctors": 1 }, "geometry": { "type": "Point", "coordinates": [ -76.8655199, 38.9813442 ] } },
{ "type": "Feature", "properties": { "ID": "l580", "address": "1850 Town Center Pkwy Ste 650, Reston, VA 20190", "doctors": 3 }, "geometry": { "type": "Point", "coordinates": [ -77.3638788, 38.9626968 ] } },
{ "type": "Feature", "properties": { "ID": "l581", "address": "4808 Moorland Ln Ste 103, Bethesda, MD 20814", "doctors": 1 }, "geometry": { "type": "Point", "coordinates": [ -77.0973201, 38.985632 ] } },
{ "type": "Feature", "properties": { "ID": "l582", "address": "5999 Burke Commons Rd, Burke, VA 22015", "doctors": 1 }, "geometry": { "type": "Point", "coordinates": [ -77.2977089, 38.7885902 ] } },
{ "type": "Feature", "properties": { "ID": "l584", "address": "3915 Old Lee Hwy Ste 21C, Fairfax, VA 22030", "doctors": 2 }, "geometry": { "type": "Point", "coordinates": [ -77.30204, 38.8468685 ] } },
{ "type": "Feature", "properties": { "ID": "l585", "address": "39070 John Mosby Hwy, Aldie, VA 20105", "doctors": 1 }, "geometry": { "type": "Point", "coordinates": [ -77.6531874, 38.9797046 ] } },
{ "type": "Feature", "properties": { "ID": "l586", "address": "7525 Greenway Center Dr Ste 202, Greenbelt, MD 20770", "doctors": 1 }, "geometry": { "type": "Point", "coordinates": [ -76.877883, 38.9910289 ] } },
{ "type": "Feature", "properties": { "ID": "l587", "address": "6211 WEDGEWOOD RD, BETHESDA, MD 20817", "doctors": 1 }, "geometry": { "type": "Point", "coordinates": [ -77.1254381, 38.9726017 ] } },