{
"type": "FeatureCollection",
"name": "ncr_webmd_2022_dentists_points",
"crs": { "type": "name", "properties": { "name": "urn:ogc:def:crs:OGC:1.3:CRS84" } },
"features": [
{ "type": "Feature", "properties": { "ID": "l3", "address": "4959 Westview Dr, Frederick, MD 21703", "doctors": 52 }, "geometry": { "type": "Point", "coordinates": [ -77.4144783, 39.3691532 ] } },
{ "type": "Feature", "properties": { "ID": "l6", "address": "8393 Centreville Rd, Manassas, VA 20111", "doctors": 6 }, "geometry": { "type": "Point", "coordinates": [ -77.4516044, 38.7738102 ] } },
{ "type": "Feature", "properties": { "ID": "l7", "address": "27 6th St NE, Washington, DC 20002", "doctors": 2 }, "geometry": { "type": "Point", "coordinates": [ -76.9982482, 38.8907953 ] } },
{ "type": "Feature", "properties": { "ID": "l8", "address": "849 Quince Orchard Blvd Ste E, Gaithersburg, MD 20878", "doctors": 12 }, "geometry": { "type": "Point", "coordinates": [ -77.2293935, 39.1395342 ] } },
{ "type": "Feature", "properties": { "ID": "l10", "address": "8 Steven Ct, Gaithersburg, MD 20877", "doctors": 1 }, "geometry": { "type": "Point", "coordinates": [ -77.181837, 39.1449546 ] } },
{ "type": "Feature", "properties": { "ID": "l11", "address": "10600 Crestwood Dr Bldg 1 Ste 1, Manassas, VA 20109", "doctors": 6 }, "geometry": { "type": "Point", "coordinates": [ -77.5123913, 38.7793228 ] } },
{ "type": "Feature", "properties": { "ID": "l15", "address": "13975 Connecticut Ave, Silver Spring, MD 20906", "doctors": 6 }, "geometry": { "type": "Point", "coordinates": [ -77.0782764, 39.0829203 ] } },
{ "type": "Feature", "properties": { "ID": "l16", "address": "7521 Virginia Oaks Dr Ste 210, Gainesville, VA 20155", "doctors": 3 }, "geometry": { "type": "Point", "coordinates": [ -77.6183093, 38.7938732 ] } },
{ "type": "Feature", "properties": { "ID": "l17", "address": "11421 Falls Rd, Potomac, MD 20854", "doctors": 1 }, "geometry": { "type": "Point", "coordinates": [ -77.1922562, 39.0428929 ] } },
{ "type": "Feature", "properties": { "ID": "l18", "address": "12200 Quince Valley Dr, Gaithersburg, MD 20878", "doctors": 4 }, "geometry": { "type": "Point", "coordinates": [ -77.2526163, 39.1103737 ] } },
{ "type": "Feature", "properties": { "ID": "l19", "address": "5138 Leesburg Pike, Alexandria, VA 22302", "doctors": 6 }, "geometry": { "type": "Point", "coordinates": [ -77.1162572, 38.8461246 ] } },
{ "type": "Feature", "properties": { "ID": "l20", "address": "4400 Jenifer St NW Ste 270, Washington, DC 20015", "doctors": 4 }, "geometry": { "type": "Point", "coordinates": [ -77.0865453, 38.958643 ] } },
{ "type": "Feature", "properties": { "ID": "l21", "address": "2100 2nd St SW, Washington, DC 20593", "doctors": 18 }, "geometry": { "type": "Point", "coordinates": [ -77.0130384, 38.8641217 ] } },
{ "type": "Feature", "properties": { "ID": "l22", "address": "3370 Urbana Pike, Ijamsville, MD 21754", "doctors": 5 }, "geometry": { "type": "Point", "coordinates": [ -77.3454985, 39.3256032 ] } },
{ "type": "Feature", "properties": { "ID": "l23", "address": "8901 Wisconsin Ave, Bethesda, MD 20889", "doctors": 20 }, "geometry": { "type": "Point", "coordinates": [ -77.0898528, 39.0020633 ] } },
{ "type": "Feature", "properties": { "ID": "l24", "address": "4200 Wisconsin Ave NW Ste 240, Washington, DC 20016", "doctors": 5 }, "geometry": { "type": "Point", "coordinates": [ -77.0776156, 38.9434072 ] } },
{ "type": "Feature", "properties": { "ID": "l27", "address": "8280 Greensboro Dr Ste 105, Mclean, VA 22102", "doctors": 17 }, "geometry": { "type": "Point", "coordinates": [ -77.2311205, 38.9246801 ] } },
{ "type": "Feature", "properties": { "ID": "l28", "address": "5200 Lyngate Ct, Burke, VA 22015", "doctors": 10 }, "geometry": { "type": "Point", "coordinates": [ -77.2579489, 38.8097709 ] } },
{ "type": "Feature", "properties": { "ID": "l29", "address": "46396 Benedict Dr Ste 230, Sterling, VA 20164", "doctors": 3 }, "geometry": { "type": "Point", "coordinates": [ -77.3940729, 39.025395 ] } },
{ "type": "Feature", "properties": { "ID": "l30", "address": "932 Largo Center Dr, Upper Marlboro, MD 20774", "doctors": 6 }, "geometry": { "type": "Point", "coordinates": [ -76.8344809, 38.9005516 ] } },
{ "type": "Feature", "properties": { "ID": "l32", "address": "850 N Randolph St Ste 104, Arlington, VA 22203", "doctors": 8 }, "geometry": { "type": "Point", "coordinates": [ -77.1093923, 38.8805116 ] } },
{ "type": "Feature", "properties": { "ID": "l34", "address": "11701 Livingston Rd Ste 305, Fort Washington, MD 20744", "doctors": 2 }, "geometry": { "type": "Point", "coordinates": [ -76.9927493, 38.7289074 ] } },
{ "type": "Feature", "properties": { "ID": "l35", "address": "3925 Minnesota Ave NE, Washington, DC 20019", "doctors": 44 }, "geometry": { "type": "Point", "coordinates": [ -76.9494977, 38.8940622 ] } },
{ "type": "Feature", "properties": { "ID": "l36", "address": "5651 Stone Rd, Centreville, VA 20120", "doctors": 10 }, "geometry": { "type": "Point", "coordinates": [ -77.4503199, 38.852721 ] } },
{ "type": "Feature", "properties": { "ID": "l37", "address": "21001 Sycolin Rd Ste 340 Ste 2400, Ashburn, VA 20147", "doctors": 2 }, "geometry": { "type": "Point", "coordinates": [ -77.5231167, 39.0418848 ] } },
{ "type": "Feature", "properties": { "ID": "l38", "address": "6537 Arlington Blvd, Falls Church, VA 22042", "doctors": 122 }, "geometry": { "type": "Point", "coordinates": [ -77.1686023, 38.8700076 ] } },
{ "type": "Feature", "properties": { "ID": "l40", "address": "14440 Layhill Rd, Silver Spring, MD 20906", "doctors": 1 }, "geometry": { "type": "Point", "coordinates": [ -77.0454593, 39.0927972 ] } },
{ "type": "Feature", "properties": { "ID": "l41", "address": "8757 Georgia Ave Ste 530, Silver Spring, MD 20910", "doctors": 12 }, "geometry": { "type": "Point", "coordinates": [ -77.0300671, 38.9985997 ] } },
{ "type": "Feature", "properties": { "ID": "l42", "address": "6428 Georgia Ave NW, Washington, DC 20012", "doctors": 12 }, "geometry": { "type": "Point", "coordinates": [ -77.027795, 38.968442 ] } },
{ "type": "Feature", "properties": { "ID": "l43", "address": "1801 ROBERT FULTON DR, RESTON, VA 20191", "doctors": 2 }, "geometry": { "type": "Point", "coordinates": [ -77.3245902, 38.9425086 ] } },
{ "type": "Feature", "properties": { "ID": "l44", "address": "19785 Crystal Rock Dr Ste 302, Germantown, MD 20874", "doctors": 4 }, "geometry": { "type": "Point", "coordinates": [ -77.2611292, 39.1805729 ] } },
{ "type": "Feature", "properties": { "ID": "l46", "address": "775 Hungerford Dr, Rockville, MD 20850", "doctors": 4 }, "geometry": { "type": "Point", "coordinates": [ -77.152824, 39.093851 ] } },
{ "type": "Feature", "properties": { "ID": "l47", "address": "29 E Frederick St, Walkersville, MD 21793", "doctors": 1 }, "geometry": { "type": "Point", "coordinates": [ -77.3513222, 39.481283 ] } },
{ "type": "Feature", "properties": { "ID": "l48", "address": "1608 Loudoun Dr, Haymarket, VA 20169", "doctors": 1 }, "geometry": { "type": "Point", "coordinates": [ -77.6311941, 38.9205396 ] } },
{ "type": "Feature", "properties": { "ID": "l49", "address": "2403 Research Blvd Ste 201, Rockville, MD 20850", "doctors": 2 }, "geometry": { "type": "Point", "coordinates": [ -77.1879211, 39.1050922 ] } },
{ "type": "Feature", "properties": { "ID": "l50", "address": "3554 Chain Bridge Rd Ste 401, Fairfax, VA 22030", "doctors": 2 }, "geometry": { "type": "Point", "coordinates": [ -77.3082198, 38.860076 ] } },
{ "type": "Feature", "properties": { "ID": "l52", "address": "1050 N Highland St Ste 300, Arlington, VA 22201", "doctors": 32 }, "geometry": { "type": "Point", "coordinates": [ -77.0952173, 38.8854344 ] } },
{ "type": "Feature", "properties": { "ID": "l53", "address": "3223 Duke St, Alexandria, VA 22314", "doctors": 3 }, "geometry": { "type": "Point", "coordinates": [ -77.0867032, 38.8087434 ] } },
{ "type": "Feature", "properties": { "ID": "l55", "address": "3636 16th St NW Ste AG28, Washington, DC 20010", "doctors": 4 }, "geometry": { "type": "Point", "coordinates": [ -77.037737, 38.936274 ] } },
{ "type": "Feature", "properties": { "ID": "l56", "address": "7315 UNIVERSITY AVE, GLEN ECHO, MD 20812", "doctors": 1 }, "geometry": { "type": "Point", "coordinates": [ -77.1420225, 38.969121 ] } },
{ "type": "Feature", "properties": { "ID": "l57", "address": "7611 IRONGATE LN, FREDERICK, MD 21702", "doctors": 1 }, "geometry": { "type": "Point", "coordinates": [ -77.4885251, 39.4433193 ] } },
{ "type": "Feature", "properties": { "ID": "l59", "address": "1325 18th St NW Ste 102, Washington, DC 20036", "doctors": 2 }, "geometry": { "type": "Point", "coordinates": [ -77.0413933, 38.908007 ] } },
{ "type": "Feature", "properties": { "ID": "l60", "address": "8140 Stonewall Shops Sq, Gainesville, VA 20155", "doctors": 11 }, "geometry": { "type": "Point", "coordinates": [ -77.6511292, 38.7852943 ] } },
{ "type": "Feature", "properties": { "ID": "l62", "address": "3259 Catlin Ave, Quantico, VA 22134", "doctors": 16 }, "geometry": { "type": "Point", "coordinates": [ -77.3085021, 38.5126089 ] } },
{ "type": "Feature", "properties": { "ID": "l63", "address": "10530 Rosehaven St Ste 111, Fairfax, VA 22030", "doctors": 7 }, "geometry": { "type": "Point", "coordinates": [ -77.3106239, 38.8736373 ] } },
{ "type": "Feature", "properties": { "ID": "l64", "address": "552 Fort Evans Rd, Leesburg, VA 20176", "doctors": 4 }, "geometry": { "type": "Point", "coordinates": [ -77.5272761, 39.1047729 ] } },
{ "type": "Feature", "properties": { "ID": "l65", "address": "3425 Wilson Blvd, Arlington, VA 22201", "doctors": 4 }, "geometry": { "type": "Point", "coordinates": [ -77.1010232, 38.8829249 ] } },
{ "type": "Feature", "properties": { "ID": "l66", "address": "28 Ridge Rd, Greenbelt, MD 20770", "doctors": 5 }, "geometry": { "type": "Point", "coordinates": [ -76.8730194, 39.0001658 ] } },
{ "type": "Feature", "properties": { "ID": "l69", "address": "50 Irving St NW, Washington, DC 20422", "doctors": 17 }, "geometry": { "type": "Point", "coordinates": [ -77.0105649, 38.9286058 ] } },
{ "type": "Feature", "properties": { "ID": "l70", "address": "7800 Sudley Rd Ste 7810, Manassas, VA 20109", "doctors": 18 }, "geometry": { "type": "Point", "coordinates": [ -77.5142974, 38.7868734 ] } },
{ "type": "Feature", "properties": { "ID": "l71", "address": "214 2nd St SE, Washington, DC 20003", "doctors": 1 }, "geometry": { "type": "Point", "coordinates": [ -77.0032875, 38.8869489 ] } },
{ "type": "Feature", "properties": { "ID": "l72", "address": "8100 Boone Blvd Ste 100, Vienna, VA 22182", "doctors": 5 }, "geometry": { "type": "Point", "coordinates": [ -77.2259702, 38.9136584 ] } },
{ "type": "Feature", "properties": { "ID": "l73", "address": "8218 Wisconsin Ave Ste 401, Bethesda, MD 20814", "doctors": 12 }, "geometry": { "type": "Point", "coordinates": [ -77.0964189, 38.992147 ] } },
{ "type": "Feature", "properties": { "ID": "l74", "address": "2730 University Blvd W Ste 514, Silver Spring, MD 20902", "doctors": 3 }, "geometry": { "type": "Point", "coordinates": [ -77.055822, 39.0392812 ] } },
{ "type": "Feature", "properties": { "ID": "l75", "address": "6900 Georgia Ave, Washington, DC 20037", "doctors": 10 }, "geometry": { "type": "Point", "coordinates": [ -77.0294113, 38.9765502 ] } },
{ "type": "Feature", "properties": { "ID": "l77", "address": "1140 19th St NW Ste 400, Washington, DC 20036", "doctors": 1 }, "geometry": { "type": "Point", "coordinates": [ -77.0440154, 38.9049471 ] } },
{ "type": "Feature", "properties": { "ID": "l79", "address": "8363 Cherry Ln, Laurel, MD 20707", "doctors": 23 }, "geometry": { "type": "Point", "coordinates": [ -76.86261, 39.0915539 ] } },
{ "type": "Feature", "properties": { "ID": "l80", "address": "42882 Truro Parish Dr Ste 201 Ste 205, Ashburn, VA 20148", "doctors": 1 }, "geometry": { "type": "Point", "coordinates": [ -77.5188562, 39.0185507 ] } },
{ "type": "Feature", "properties": { "ID": "l82", "address": "1760 Reston Pkwy Ste 204, Reston, VA 20190", "doctors": 2 }, "geometry": { "type": "Point", "coordinates": [ -77.3548953, 38.9628434 ] } },
{ "type": "Feature", "properties": { "ID": "l84", "address": "2440 M St NW Ste 601, Washington, DC 20037", "doctors": 2 }, "geometry": { "type": "Point", "coordinates": [ -77.0530101, 38.9050838 ] } },
{ "type": "Feature", "properties": { "ID": "l85", "address": "3910 Centreville Rd Ste 110, Chantilly, VA 20151", "doctors": 7 }, "geometry": { "type": "Point", "coordinates": [ -77.4304456, 38.8964683 ] } },
{ "type": "Feature", "properties": { "ID": "l86", "address": "10401 Old Georgetown Rd Ste 303, Bethesda, MD 20814", "doctors": 3 }, "geometry": { "type": "Point", "coordinates": [ -77.125311, 39.026502 ] } },
{ "type": "Feature", "properties": { "ID": "l87", "address": "6546 Little River Turnpike, Alexandria, VA 22312", "doctors": 7 }, "geometry": { "type": "Point", "coordinates": [ -77.1607511, 38.8227269 ] } },
{ "type": "Feature", "properties": { "ID": "l89", "address": "5742 Pickwick Rd Ste 15, Centreville, VA 20121", "doctors": 8 }, "geometry": { "type": "Point", "coordinates": [ -77.423423, 38.8379721 ] } },
{ "type": "Feature", "properties": { "ID": "l90", "address": "933b Russell Ave Ste B, Gaithersburg, MD 20879", "doctors": 3 }, "geometry": { "type": "Point", "coordinates": [ -77.2149054, 39.1591957 ] } },
{ "type": "Feature", "properties": { "ID": "l91", "address": "1525 7th St NW, Washington, DC 20001", "doctors": 1 }, "geometry": { "type": "Point", "coordinates": [ -77.0215877, 38.9103177 ] } },
{ "type": "Feature", "properties": { "ID": "l92", "address": "3600 E West Hwy Ste 400, Hyattsville, MD 20782", "doctors": 34 }, "geometry": { "type": "Point", "coordinates": [ -76.9536483, 38.9670483 ] } },
{ "type": "Feature", "properties": { "ID": "l93", "address": "1392 Old Bridge Rd, Woodbridge, VA 22192", "doctors": 8 }, "geometry": { "type": "Point", "coordinates": [ -77.2584007, 38.6741874 ] } },
{ "type": "Feature", "properties": { "ID": "l94", "address": "12701 Marblestone Dr Ste 260, Woodbridge, VA 22192", "doctors": 8 }, "geometry": { "type": "Point", "coordinates": [ -77.3517543, 38.6780687 ] } },
{ "type": "Feature", "properties": { "ID": "l95", "address": "6103 Greenbelt Rd, College Park, MD 20740", "doctors": 3 }, "geometry": { "type": "Point", "coordinates": [ -76.9089912, 38.9970318 ] } },
{ "type": "Feature", "properties": { "ID": "l96", "address": "1531 Maryland Ave NE, Washington, DC 20002", "doctors": 22 }, "geometry": { "type": "Point", "coordinates": [ -76.9812277, 38.9005491 ] } },
{ "type": "Feature", "properties": { "ID": "l97", "address": "6019 Centreville Crest Ln, Centreville, VA 20121", "doctors": 8 }, "geometry": { "type": "Point", "coordinates": [ -77.4340032, 38.8366315 ] } },
{ "type": "Feature", "properties": { "ID": "l98", "address": "7611 LITTLE RIVER TPKE, ANNANDALE, VA 22003", "doctors": 4 }, "geometry": { "type": "Point", "coordinates": [ -77.2088538, 38.831971 ] } },
{ "type": "Feature", "properties": { "ID": "l99", "address": "3901 Georgia Ave NW Ste 1, Washington, DC 20011", "doctors": 1 }, "geometry": { "type": "Point", "coordinates": [ -77.0244705, 38.9388395 ] } },
{ "type": "Feature", "properties": { "ID": "l100", "address": "600 W St NW, Washington, DC 20059", "doctors": 29 }, "geometry": { "type": "Point", "coordinates": [ -77.0208338, 38.9185863 ] } },
{ "type": "Feature", "properties": { "ID": "l101", "address": "462 Herndon Pkwy Ste 106, Herndon, VA 20170", "doctors": 5 }, "geometry": { "type": "Point", "coordinates": [ -77.3767942, 38.9575882 ] } },
{ "type": "Feature", "properties": { "ID": "l102", "address": "5957 Centreville Crest Ln, Centreville, VA 20121", "doctors": 4 }, "geometry": { "type": "Point", "coordinates": [ -77.433992, 38.8375853 ] } },
{ "type": "Feature", "properties": { "ID": "l105", "address": "7915 Lake Manassas Dr Ste 301, Gainesville, VA 20155", "doctors": 6 }, "geometry": { "type": "Point", "coordinates": [ -77.6454539, 38.7861637 ] } },
{ "type": "Feature", "properties": { "ID": "l106", "address": "8901 Rockville Pike, Bethesda, MD 20889", "doctors": 78 }, "geometry": { "type": "Point", "coordinates": [ -77.0935096, 39.0017771 ] } },
{ "type": "Feature", "properties": { "ID": "l107", "address": "9508 Lee Hwy Ste A, Fairfax, VA 22031", "doctors": 3 }, "geometry": { "type": "Point", "coordinates": [ -77.2734842, 38.8680337 ] } },
{ "type": "Feature", "properties": { "ID": "l108", "address": "21 Industrial Park Dr, Waldorf, MD 20602", "doctors": 1 }, "geometry": { "type": "Point", "coordinates": [ -76.9081689, 38.6157892 ] } },
{ "type": "Feature", "properties": { "ID": "l109", "address": "12359 Sunrise Valley Dr Ste 210, Reston, VA 20191", "doctors": 3 }, "geometry": { "type": "Point", "coordinates": [ -77.373011, 38.9497685 ] } },
{ "type": "Feature", "properties": { "ID": "l110", "address": "11211 Waples Mill Rd Ste 300, Fairfax, VA 22030", "doctors": 9 }, "geometry": { "type": "Point", "coordinates": [ -77.3355681, 38.8589802 ] } },
{ "type": "Feature", "properties": { "ID": "l112", "address": "650 Pennsylvania Ave SE Ste 460, Washington, DC 20003", "doctors": 1 }, "geometry": { "type": "Point", "coordinates": [ -76.9969556, 38.8854306 ] } },
{ "type": "Feature", "properties": { "ID": "l113", "address": "15054 Stillfield Pl, Centreville, VA 20120", "doctors": 1 }, "geometry": { "type": "Point", "coordinates": [ -77.4709366, 38.8443866 ] } },
{ "type": "Feature", "properties": { "ID": "l114", "address": "15200 Shady Grove Rd Ste 340, Rockville, MD 20850", "doctors": 1 }, "geometry": { "type": "Point", "coordinates": [ -77.1912957, 39.1046394 ] } },
{ "type": "Feature", "properties": { "ID": "l115", "address": "1500 Belle View Blvd, Alexandria, VA 22307", "doctors": 7 }, "geometry": { "type": "Point", "coordinates": [ -77.0588299, 38.775357 ] } },
{ "type": "Feature", "properties": { "ID": "l117", "address": "2992 Waldorf Market Pl, Waldorf, MD 20603", "doctors": 17 }, "geometry": { "type": "Point", "coordinates": [ -76.9205735, 38.6257571 ] } },
{ "type": "Feature", "properties": { "ID": "l118", "address": "8310 Old Courthouse Rd Ste B, Vienna, VA 22182", "doctors": 3 }, "geometry": { "type": "Point", "coordinates": [ -77.232006, 38.914845 ] } },
{ "type": "Feature", "properties": { "ID": "l119", "address": "9854 Main St, Fairfax, VA 22031", "doctors": 2 }, "geometry": { "type": "Point", "coordinates": [ -77.2873195, 38.8442905 ] } },
{ "type": "Feature", "properties": { "ID": "l120", "address": "11125 Rockville Pike Ste 205, Rockville, MD 20852", "doctors": 2 }, "geometry": { "type": "Point", "coordinates": [ -77.1084823, 39.0394783 ] } },
{ "type": "Feature", "properties": { "ID": "l121", "address": "4702 Chevy Chase Dr, Chevy Chase, MD 20815", "doctors": 2 }, "geometry": { "type": "Point", "coordinates": [ -77.0919925, 38.9767169 ] } },
{ "type": "Feature", "properties": { "ID": "l122", "address": "8989 Fern Park Dr, Burke, VA 22015", "doctors": 4 }, "geometry": { "type": "Point", "coordinates": [ -77.2564642, 38.8091469 ] } },
{ "type": "Feature", "properties": { "ID": "l123", "address": "2737 Devonshire Pl NW, Washington, DC 20008", "doctors": 7 }, "geometry": { "type": "Point", "coordinates": [ -77.0577956, 38.9314343 ] } },
{ "type": "Feature", "properties": { "ID": "l124", "address": "9141 Alaking Ct Ste 107, Capitol Heights, MD 20743", "doctors": 14 }, "geometry": { "type": "Point", "coordinates": [ -76.8479158, 38.8699892 ] } },
{ "type": "Feature", "properties": { "ID": "l125", "address": "2010 Corporate Rdg Ste 700, Mclean, VA 22102", "doctors": 101 }, "geometry": { "type": "Point", "coordinates": [ -77.2154487, 38.9117494 ] } },
{ "type": "Feature", "properties": { "ID": "l126", "address": "110 IRVING ST NW, WASHINGTON, DC 20010", "doctors": 16 }, "geometry": { "type": "Point", "coordinates": [ -77.0144978, 38.9292248 ] } },
{ "type": "Feature", "properties": { "ID": "l127", "address": "17810 FALCONCREST CIR, GERMANTOWN, MD 20874", "doctors": 1 }, "geometry": { "type": "Point", "coordinates": [ -77.2905949, 39.1499444 ] } },
{ "type": "Feature", "properties": { "ID": "l128", "address": "21525 Ridgetop Cir Ste 220, Sterling, VA 20166", "doctors": 1 }, "geometry": { "type": "Point", "coordinates": [ -77.4059141, 39.0293612 ] } },
{ "type": "Feature", "properties": { "ID": "l129", "address": "1425 S Eads St Ste C, Arlington, VA 22202", "doctors": 1 }, "geometry": { "type": "Point", "coordinates": [ -77.0529734, 38.8603553 ] } },
{ "type": "Feature", "properties": { "ID": "l131", "address": "13555 Wellington Center Cir Ste 105, Gainesville, VA 20155", "doctors": 3 }, "geometry": { "type": "Point", "coordinates": [ -77.5980116, 38.7931275 ] } },
{ "type": "Feature", "properties": { "ID": "l133", "address": "12724 Directors Loop, Woodbridge, VA 22192", "doctors": 5 }, "geometry": { "type": "Point", "coordinates": [ -77.265817, 38.676695 ] } },
{ "type": "Feature", "properties": { "ID": "l134", "address": "7540 Little River Tpke Ste A, Annandale, VA 22003", "doctors": 11 }, "geometry": { "type": "Point", "coordinates": [ -77.2071672, 38.8328389 ] } },
{ "type": "Feature", "properties": { "ID": "l137", "address": "2112 F St NW Ste 304, Washington, DC 20037", "doctors": 3 }, "geometry": { "type": "Point", "coordinates": [ -77.0469182, 38.8971962 ] } },
{ "type": "Feature", "properties": { "ID": "l138", "address": "14722 Baltimore Ave Unit 103, Laurel, MD 20707", "doctors": 5 }, "geometry": { "type": "Point", "coordinates": [ -76.8565926, 39.0939433 ] } },
{ "type": "Feature", "properties": { "ID": "l141", "address": "30 Audrey Ln, Oxon Hill, MD 20745", "doctors": 14 }, "geometry": { "type": "Point", "coordinates": [ -77.0016707, 38.8172675 ] } },
{ "type": "Feature", "properties": { "ID": "l142", "address": "6306 Democracy Blvd, Bethesda, MD 20817", "doctors": 6 }, "geometry": { "type": "Point", "coordinates": [ -77.1276684, 39.0233847 ] } },
{ "type": "Feature", "properties": { "ID": "l143", "address": "5850 LITTLE SPRING CT, FREDERICK, MD 21704", "doctors": 1 }, "geometry": { "type": "Point", "coordinates": [ -77.3373555, 39.3935108 ] } },
{ "type": "Feature", "properties": { "ID": "l144", "address": "1482 Edwards Ln SW, Bolling Afb, DC 20032", "doctors": 1 }, "geometry": { "type": "Point", "coordinates": [ -77.0226908, 38.8323813 ] } },
{ "type": "Feature", "properties": { "ID": "l145", "address": "5805 Silver Hill Rd Ste G, District Heights, MD 20747", "doctors": 13 }, "geometry": { "type": "Point", "coordinates": [ -76.905287, 38.8548501 ] } },
{ "type": "Feature", "properties": { "ID": "l146", "address": "552 Fort Evans Rd Ste 100, Leesburg, VA 20176", "doctors": 7 }, "geometry": { "type": "Point", "coordinates": [ -77.5265161, 39.1049521 ] } },
{ "type": "Feature", "properties": { "ID": "l147", "address": "10680 Main St Ste 150, Fairfax, VA 22030", "doctors": 6 }, "geometry": { "type": "Point", "coordinates": [ -77.314309, 38.8493002 ] } },
{ "type": "Feature", "properties": { "ID": "l148", "address": "1712 I St. NW Suite 702, Washington, DC 20006", "doctors": 4 }, "geometry": { "type": "Point", "coordinates": [ -77.0401408, 38.9010603 ] } },
{ "type": "Feature", "properties": { "ID": "l149", "address": "1610 Village Market Blvd SE Ste 130, Leesburg, VA 20175", "doctors": 8 }, "geometry": { "type": "Point", "coordinates": [ -77.5223054, 39.0883123 ] } },
{ "type": "Feature", "properties": { "ID": "l150", "address": "6420 Elmwood Rd, Chevy Chase, MD 20815", "doctors": 1 }, "geometry": { "type": "Point", "coordinates": [ -77.1064238, 38.974725 ] } },
{ "type": "Feature", "properties": { "ID": "l152", "address": "6725 Annapolis Rd, Hyattsville, MD 20784", "doctors": 49 }, "geometry": { "type": "Point", "coordinates": [ -76.9012343, 38.9426504 ] } },
{ "type": "Feature", "properties": { "ID": "l153", "address": "4600 Connecticut Ave NW Ste 131, Washington, DC 20008", "doctors": 2 }, "geometry": { "type": "Point", "coordinates": [ -77.0671173, 38.9499843 ] } },
{ "type": "Feature", "properties": { "ID": "l154", "address": "9012 Mathis Ave, Manassas, VA 20110", "doctors": 7 }, "geometry": { "type": "Point", "coordinates": [ -77.4659396, 38.75977 ] } },
{ "type": "Feature", "properties": { "ID": "l155", "address": "7611 Little River Tpke Ste 101, Annandale, VA 22003", "doctors": 2 }, "geometry": { "type": "Point", "coordinates": [ -77.2088709, 38.8319256 ] } },
{ "type": "Feature", "properties": { "ID": "l156", "address": "4103 Chain Bridge Rd Ste LL100, Fairfax, VA 22030", "doctors": 2 }, "geometry": { "type": "Point", "coordinates": [ -77.3078967, 38.8433932 ] } },
{ "type": "Feature", "properties": { "ID": "l157", "address": "2 BENT PINE CT, POTOMAC, MD 20854", "doctors": 1 }, "geometry": { "type": "Point", "coordinates": [ -77.179273, 39.0668403 ] } },
{ "type": "Feature", "properties": { "ID": "l158", "address": "6521 Arlington Blvd Ste 112, Falls Church, VA 22042", "doctors": 3 }, "geometry": { "type": "Point", "coordinates": [ -77.1677349, 38.8703075 ] } },
{ "type": "Feature", "properties": { "ID": "l159", "address": "5722 Livingston Rd, Oxon Hill, MD 20745", "doctors": 1 }, "geometry": { "type": "Point", "coordinates": [ -76.9912288, 38.8098675 ] } },
{ "type": "Feature", "properties": { "ID": "l160", "address": "6831 Sir Viceroy Dr Ste 200, Alexandria, VA 22315", "doctors": 4 }, "geometry": { "type": "Point", "coordinates": [ -77.134645, 38.769977 ] } },
{ "type": "Feature", "properties": { "ID": "l161", "address": "14 W MARSHALL ST, MIDDLEBURG, VA 20118", "doctors": 1 }, "geometry": { "type": "Point", "coordinates": [ -77.7368701, 38.9695982 ] } },
{ "type": "Feature", "properties": { "ID": "l162", "address": "2970 Prince William Pkwy, Woodbridge, VA 22192", "doctors": 6 }, "geometry": { "type": "Point", "coordinates": [ -77.3017258, 38.6520947 ] } },
{ "type": "Feature", "properties": { "ID": "l163", "address": "4110 Aspen Hill Rd Ste 310, Rockville, MD 20853", "doctors": 2 }, "geometry": { "type": "Point", "coordinates": [ -77.081812, 39.079827 ] } },
{ "type": "Feature", "properties": { "ID": "l165", "address": "350 Montevue Ln Ste 2-201, Frederick, MD 21702", "doctors": 5 }, "geometry": { "type": "Point", "coordinates": [ -77.4370291, 39.4316857 ] } },
{ "type": "Feature", "properties": { "ID": "l166", "address": "196 Thomas Johnson Dr Ste 130, Frederick, MD 21702", "doctors": 1 }, "geometry": { "type": "Point", "coordinates": [ -77.4088211, 39.4392127 ] } },
{ "type": "Feature", "properties": { "ID": "l167", "address": "10401 Old Georgetown Rd Ste 405, Bethesda, MD 20814", "doctors": 2 }, "geometry": { "type": "Point", "coordinates": [ -77.1252326, 39.0264501 ] } },
{ "type": "Feature", "properties": { "ID": "l168", "address": "4910 Massachusetts Ave NW Ste 210, Washington, DC 20016", "doctors": 1 }, "geometry": { "type": "Point", "coordinates": [ -77.097512, 38.9458093 ] } },
{ "type": "Feature", "properties": { "ID": "l169", "address": "4703 OLD SOPER RD, CAMP SPRINGS, MD 20746", "doctors": 3 }, "geometry": { "type": "Point", "coordinates": [ -76.913347, 38.8244842 ] } },
{ "type": "Feature", "properties": { "ID": "l171", "address": "8200 Greensboro Dr Ste 1002, Mclean, VA 22102", "doctors": 8 }, "geometry": { "type": "Point", "coordinates": [ -77.2283906, 38.9231812 ] } },
{ "type": "Feature", "properties": { "ID": "l172", "address": "4123 River Rd NW, Washington, DC 20016", "doctors": 1 }, "geometry": { "type": "Point", "coordinates": [ -77.0815959, 38.9499646 ] } },
{ "type": "Feature", "properties": { "ID": "l173", "address": "7915 Lake Manassas Dr, Gainesville, VA 20155", "doctors": 3 }, "geometry": { "type": "Point", "coordinates": [ -77.6454774, 38.7859535 ] } },
{ "type": "Feature", "properties": { "ID": "l174", "address": "131 Elden St Ste 130, Herndon, VA 20170", "doctors": 5 }, "geometry": { "type": "Point", "coordinates": [ -77.3670522, 38.9655147 ] } },
{ "type": "Feature", "properties": { "ID": "l175", "address": "5225 Pooks Hill Rd Ste 2, Bethesda, MD 20814", "doctors": 1 }, "geometry": { "type": "Point", "coordinates": [ -77.106924, 39.0167159 ] } },
{ "type": "Feature", "properties": { "ID": "l177", "address": "3020 14th St NW, Washington, DC 20009", "doctors": 2 }, "geometry": { "type": "Point", "coordinates": [ -77.032968, 38.9281612 ] } },
{ "type": "Feature", "properties": { "ID": "l179", "address": "1020 Elden St Ste 106, Herndon, VA 20170", "doctors": 6 }, "geometry": { "type": "Point", "coordinates": [ -77.3959743, 38.9680443 ] } },
{ "type": "Feature", "properties": { "ID": "l180", "address": "1119 Marlene Ln, Great Falls, VA 22066", "doctors": 1 }, "geometry": { "type": "Point", "coordinates": [ -77.281887, 38.9702051 ] } },
{ "type": "Feature", "properties": { "ID": "l182", "address": "1800 N Kent St Ste 100, Arlington, VA 22209", "doctors": 5 }, "geometry": { "type": "Point", "coordinates": [ -77.0700275, 38.8965336 ] } },
{ "type": "Feature", "properties": { "ID": "l183", "address": "361 Maple Ave W Ste 200, Vienna, VA 22180", "doctors": 2 }, "geometry": { "type": "Point", "coordinates": [ -77.271665, 38.896766 ] } },
{ "type": "Feature", "properties": { "ID": "l184", "address": "3100 S Manchester St, Falls Church, VA 22044", "doctors": 3 }, "geometry": { "type": "Point", "coordinates": [ -77.1364586, 38.8642053 ] } },
{ "type": "Feature", "properties": { "ID": "l185", "address": "1018 N Madison St, Arlington, VA 22205", "doctors": 1 }, "geometry": { "type": "Point", "coordinates": [ -77.143146, 38.8799223 ] } },
{ "type": "Feature", "properties": { "ID": "l186", "address": "2301 Martin Luther King Jr Ave SE, Washington, DC 20020", "doctors": 7 }, "geometry": { "type": "Point", "coordinates": [ -76.991285, 38.863526 ] } },
{ "type": "Feature", "properties": { "ID": "l187", "address": "198 Thomas Johnson Dr Ste 108, Frederick, MD 21702", "doctors": 6 }, "geometry": { "type": "Point", "coordinates": [ -77.4097302, 39.439158 ] } },
{ "type": "Feature", "properties": { "ID": "l188", "address": "4 Professional Dr Ste 121, Gaithersburg, MD 20879", "doctors": 5 }, "geometry": { "type": "Point", "coordinates": [ -77.227685, 39.163609 ] } },
{ "type": "Feature", "properties": { "ID": "l189", "address": "2553 Chain Bridge Rd, Vienna, VA 22181", "doctors": 8 }, "geometry": { "type": "Point", "coordinates": [ -77.2759391, 38.8923445 ] } },
{ "type": "Feature", "properties": { "ID": "l190", "address": "12793 Laurel Bowie Rd, Laurel, MD 20708", "doctors": 37 }, "geometry": { "type": "Point", "coordinates": [ -76.8377902, 39.0653088 ] } },
{ "type": "Feature", "properties": { "ID": "l191", "address": "12701 Galveston Ct, Manassas, VA 20112", "doctors": 6 }, "geometry": { "type": "Point", "coordinates": [ -77.3641511, 38.680552 ] } },
{ "type": "Feature", "properties": { "ID": "l192", "address": "14333 Laurel Bowie Rd, Laurel, MD 20708", "doctors": 8 }, "geometry": { "type": "Point", "coordinates": [ -76.8462847, 39.0870266 ] } },
{ "type": "Feature", "properties": { "ID": "l193", "address": "3500 E West Hwy Ste 1438, Hyattsville, MD 20782", "doctors": 13 }, "geometry": { "type": "Point", "coordinates": [ -76.955498, 38.9683462 ] } },
{ "type": "Feature", "properties": { "ID": "l195", "address": "8353 Greensboro Dr Suite A, Mclean, VA 22102", "doctors": 15 }, "geometry": { "type": "Point", "coordinates": [ -77.235172, 38.927048 ] } },
{ "type": "Feature", "properties": { "ID": "l196", "address": "8988 Lorton Station Blvd Ste 101, Lorton, VA 22079", "doctors": 5 }, "geometry": { "type": "Point", "coordinates": [ -77.2126426, 38.7147868 ] } },
{ "type": "Feature", "properties": { "ID": "l198", "address": "1131 University Blvd W Ste 103, Silver Spring, MD 20902", "doctors": 1 }, "geometry": { "type": "Point", "coordinates": [ -77.0290909, 39.037431 ] } },
{ "type": "Feature", "properties": { "ID": "l199", "address": "120 Beulah Rd NE, Vienna, VA 22180", "doctors": 5 }, "geometry": { "type": "Point", "coordinates": [ -77.2591489, 38.9077574 ] } },
{ "type": "Feature", "properties": { "ID": "l201", "address": "1050 N Highland St Ste 220, Arlington, VA 22201", "doctors": 4 }, "geometry": { "type": "Point", "coordinates": [ -77.0952453, 38.88525 ] } },
{ "type": "Feature", "properties": { "ID": "l202", "address": "8725 Digges Rd, Manassas, VA 20110", "doctors": 3 }, "geometry": { "type": "Point", "coordinates": [ -77.4861279, 38.7659653 ] } },
{ "type": "Feature", "properties": { "ID": "l205", "address": "5215 Loughboro Rd NW Suite 450, Washington, DC 20016", "doctors": 5 }, "geometry": { "type": "Point", "coordinates": [ -77.107455, 38.9370495 ] } },
{ "type": "Feature", "properties": { "ID": "l206", "address": "3901 Centerview Dr Ste T, Chantilly, VA 20151", "doctors": 15 }, "geometry": { "type": "Point", "coordinates": [ -77.430961, 38.8972302 ] } },
{ "type": "Feature", "properties": { "ID": "l207", "address": "5606 CYPRESS CREEK DR, HYATTSVILLE, MD 20782", "doctors": 1 }, "geometry": { "type": "Point", "coordinates": [ -76.9820152, 38.9568019 ] } },
{ "type": "Feature", "properties": { "ID": "l208", "address": "8133 Leesburg Pike Ste 150, Vienna, VA 22182", "doctors": 10 }, "geometry": { "type": "Point", "coordinates": [ -77.227365, 38.915204 ] } },
{ "type": "Feature", "properties": { "ID": "l209", "address": "42882 Truro Parish Dr Ste 210, Ashburn, VA 20148", "doctors": 1 }, "geometry": { "type": "Point", "coordinates": [ -77.518814, 39.018444 ] } },
{ "type": "Feature", "properties": { "ID": "l210", "address": "1400 Mercantile Ln Ste 100, Upper Marlboro, MD 20774", "doctors": 5 }, "geometry": { "type": "Point", "coordinates": [ -76.8383556, 38.9092567 ] } },
{ "type": "Feature", "properties": { "ID": "l211", "address": "16329 COLUMBUS AVE, ROCKVILLE, MD 20855", "doctors": 1 }, "geometry": { "type": "Point", "coordinates": [ -77.1674224, 39.1266041 ] } },
{ "type": "Feature", "properties": { "ID": "l213", "address": "106 ELDEN ST SUITE 19, Leesburg, VA 20176", "doctors": 3 }, "geometry": { "type": "Point", "coordinates": [ -77.3658648, 38.9671043 ] } },
{ "type": "Feature", "properties": { "ID": "l214", "address": "6081 Arlington Blvd, Falls Church, VA 22044", "doctors": 5 }, "geometry": { "type": "Point", "coordinates": [ -77.1437303, 38.8669357 ] } },
{ "type": "Feature", "properties": { "ID": "l215", "address": "14300 Gallant Fox Ln Ste 214, Bowie, MD 20715", "doctors": 1 }, "geometry": { "type": "Point", "coordinates": [ -76.7578659, 38.9731521 ] } },
{ "type": "Feature", "properties": { "ID": "l218", "address": "610 Valley Brook Dr, Silver Spring, MD 20904", "doctors": 1 }, "geometry": { "type": "Point", "coordinates": [ -76.9983044, 39.0587128 ] } },
{ "type": "Feature", "properties": { "ID": "l220", "address": "202 S King St, Leesburg, VA 20175", "doctors": 4 }, "geometry": { "type": "Point", "coordinates": [ -77.5652779, 39.113448 ] } },
{ "type": "Feature", "properties": { "ID": "l221", "address": "6921 Annapolis Rd, Hyattsville, MD 20784", "doctors": 3 }, "geometry": { "type": "Point", "coordinates": [ -76.8963034, 38.9455171 ] } },
{ "type": "Feature", "properties": { "ID": "l222", "address": "8955 WOOD RD, BETHESDA, MD 20889", "doctors": 31 }, "geometry": { "type": "Point", "coordinates": [ -77.0950981, 39.0020082 ] } },
{ "type": "Feature", "properties": { "ID": "l223", "address": "198 Thomas Johnson Dr Ste 102, Frederick, MD 21702", "doctors": 9 }, "geometry": { "type": "Point", "coordinates": [ -77.4096674, 39.4391485 ] } },
{ "type": "Feature", "properties": { "ID": "l224", "address": "7450 Albert Rd Fl 1, Brandywine, MD 20613", "doctors": 5 }, "geometry": { "type": "Point", "coordinates": [ -76.8788971, 38.6707832 ] } },
{ "type": "Feature", "properties": { "ID": "l225", "address": "5225 Wisconsin Ave NW Ste 511, Washington, DC 20015", "doctors": 5 }, "geometry": { "type": "Point", "coordinates": [ -77.0840578, 38.9584508 ] } },
{ "type": "Feature", "properties": { "ID": "l226", "address": "701 K St NE, Washington, DC 20002", "doctors": 1 }, "geometry": { "type": "Point", "coordinates": [ -76.9959134, 38.9021811 ] } },
{ "type": "Feature", "properties": { "ID": "l227", "address": "1626 GOLDEN CT, MCLEAN, VA 22101", "doctors": 1 }, "geometry": { "type": "Point", "coordinates": [ -77.1490781, 38.9242983 ] } },
{ "type": "Feature", "properties": { "ID": "l229", "address": "7806 Sudley Rd Ste 210, Manassas, VA 20109", "doctors": 24 }, "geometry": { "type": "Point", "coordinates": [ -77.5142973, 38.7869037 ] } },
{ "type": "Feature", "properties": { "ID": "l230", "address": "7305 Baltimore Ave Ste 204, College Park, MD 20740", "doctors": 36 }, "geometry": { "type": "Point", "coordinates": [ -76.9372413, 38.9789979 ] } },
{ "type": "Feature", "properties": { "ID": "l231", "address": "2311 M St NW Ste 400, Washington, DC 20037", "doctors": 2 }, "geometry": { "type": "Point", "coordinates": [ -77.0507165, 38.9055355 ] } },
{ "type": "Feature", "properties": { "ID": "l232", "address": "212 Park St SE, Vienna, VA 22180", "doctors": 3 }, "geometry": { "type": "Point", "coordinates": [ -77.2600268, 38.901721 ] } },
{ "type": "Feature", "properties": { "ID": "l233", "address": "77 Thomas Johnson Dr Ste A, Frederick, MD 21702", "doctors": 5 }, "geometry": { "type": "Point", "coordinates": [ -77.4062768, 39.4464591 ] } },
{ "type": "Feature", "properties": { "ID": "l234", "address": "3423 Olney Laytonsville Rd Ste 3A, Olney, MD 20832", "doctors": 1 }, "geometry": { "type": "Point", "coordinates": [ -77.0682738, 39.1543448 ] } },
{ "type": "Feature", "properties": { "ID": "l235", "address": "113 la Grange Ave, La Plata, MD 20646", "doctors": 12 }, "geometry": { "type": "Point", "coordinates": [ -76.9771325, 38.5278574 ] } },
{ "type": "Feature", "properties": { "ID": "l236", "address": "5671 Columbia Pike Ste 101, Falls Church, VA 22041", "doctors": 5 }, "geometry": { "type": "Point", "coordinates": [ -77.124484, 38.8515976 ] } },
{ "type": "Feature", "properties": { "ID": "l237", "address": "3930 Knowles Ave Ste 302, Kensington, MD 20895", "doctors": 1 }, "geometry": { "type": "Point", "coordinates": [ -77.0779338, 39.0273595 ] } },
{ "type": "Feature", "properties": { "ID": "l238", "address": "7608 Maryknoll Ave, Bethesda, MD 20817", "doctors": 2 }, "geometry": { "type": "Point", "coordinates": [ -77.134992, 38.9874656 ] } },
{ "type": "Feature", "properties": { "ID": "l239", "address": "20 Pidgeon Hill Dr Ste 206, Sterling, VA 20165", "doctors": 2 }, "geometry": { "type": "Point", "coordinates": [ -77.411074, 39.0382932 ] } },
{ "type": "Feature", "properties": { "ID": "l240", "address": "12973 Highland Crossing Dr Ste B, Herndon, VA 20171", "doctors": 7 }, "geometry": { "type": "Point", "coordinates": [ -77.395822, 38.949459 ] } },
{ "type": "Feature", "properties": { "ID": "l241", "address": "11400 ROCKVILLE PIKE, ROCKVILLE, MD 20852", "doctors": 2 }, "geometry": { "type": "Point", "coordinates": [ -77.1113462, 39.0420961 ] } },
{ "type": "Feature", "properties": { "ID": "l242", "address": "46090 Lake Center Plz Ste 202, Sterling, VA 20165", "doctors": 1 }, "geometry": { "type": "Point", "coordinates": [ -77.4052325, 39.0338498 ] } },
{ "type": "Feature", "properties": { "ID": "l243", "address": "2440 Virginia Ave NW Apt D104, Washington, DC 20037", "doctors": 3 }, "geometry": { "type": "Point", "coordinates": [ -77.0518456, 38.8976069 ] } },
{ "type": "Feature", "properties": { "ID": "l244", "address": "4000 Mitchellville Rd Ste B426, Bowie, MD 20716", "doctors": 1 }, "geometry": { "type": "Point", "coordinates": [ -76.7231141, 38.9457245 ] } },
{ "type": "Feature", "properties": { "ID": "l245", "address": "8830 Cameron St Ste 203, Silver Spring, MD 20910", "doctors": 6 }, "geometry": { "type": "Point", "coordinates": [ -77.0278634, 39.0003622 ] } },
{ "type": "Feature", "properties": { "ID": "l246", "address": "11868 Sunrise Valley Dr Ste 100, Reston, VA 20191", "doctors": 4 }, "geometry": { "type": "Point", "coordinates": [ -77.3583042, 38.9467871 ] } },
{ "type": "Feature", "properties": { "ID": "l247", "address": "11339 Liberty Rd, Frederick, MD 21701", "doctors": 2 }, "geometry": { "type": "Point", "coordinates": [ -77.2702379, 39.4736065 ] } },
{ "type": "Feature", "properties": { "ID": "l249", "address": "9087 Shady Grove Ct, Gaithersburg, MD 20877", "doctors": 6 }, "geometry": { "type": "Point", "coordinates": [ -77.182903, 39.119191 ] } },
{ "type": "Feature", "properties": { "ID": "l250", "address": "3311 Toledo Ter Ste B104, Hyattsville, MD 20782", "doctors": 7 }, "geometry": { "type": "Point", "coordinates": [ -76.9616623, 38.9684224 ] } },
{ "type": "Feature", "properties": { "ID": "l251", "address": "6550 Mercantile Dr E Ste 101, Frederick, MD 21703", "doctors": 5 }, "geometry": { "type": "Point", "coordinates": [ -77.4385182, 39.3954099 ] } },
{ "type": "Feature", "properties": { "ID": "l252", "address": "4708 Bradley Blvd Apt T1, Chevy Chase, MD 20815", "doctors": 2 }, "geometry": { "type": "Point", "coordinates": [ -77.0926444, 38.9775717 ] } },
{ "type": "Feature", "properties": { "ID": "l253", "address": "8639B 16th St, Silver Spring, MD 20910", "doctors": 44 }, "geometry": { "type": "Point", "coordinates": [ -77.0384769, 38.9985887 ] } },
{ "type": "Feature", "properties": { "ID": "l254", "address": "308 Main Street (Kentlands), Gaithersburg, MD 20878", "doctors": 8 }, "geometry": { "type": "Point", "coordinates": [ -77.2383037, 39.121944 ] } },
{ "type": "Feature", "properties": { "ID": "l255", "address": "5695 King Centre Dr Ste B100, Alexandria, VA 22315", "doctors": 11 }, "geometry": { "type": "Point", "coordinates": [ -77.1327368, 38.7693853 ] } },
{ "type": "Feature", "properties": { "ID": "l256", "address": "5650 Shields Dr, Bethesda, MD 20817", "doctors": 1 }, "geometry": { "type": "Point", "coordinates": [ -77.1131443, 39.0066418 ] } },
{ "type": "Feature", "properties": { "ID": "l257", "address": "1826 Westmoreland St, Mclean, VA 22101", "doctors": 3 }, "geometry": { "type": "Point", "coordinates": [ -77.1784867, 38.9159954 ] } },
{ "type": "Feature", "properties": { "ID": "l258", "address": "3102 Golansky Blvd Ste 102, Woodbridge, VA 22192", "doctors": 1 }, "geometry": { "type": "Point", "coordinates": [ -77.3054194, 38.6522579 ] } },
{ "type": "Feature", "properties": { "ID": "l259", "address": "8315 N Brook Ln Ste 101, Bethesda, MD 20814", "doctors": 1 }, "geometry": { "type": "Point", "coordinates": [ -77.1030446, 38.9926242 ] } },
{ "type": "Feature", "properties": { "ID": "l260", "address": "8221 Willow Oaks Corporate Dr, Fairfax, VA 22031", "doctors": 3 }, "geometry": { "type": "Point", "coordinates": [ -77.2339591, 38.8637246 ] } },
{ "type": "Feature", "properties": { "ID": "l261", "address": "611 S Carlin Springs Rd Ste 303, Arlington, VA 22204", "doctors": 2 }, "geometry": { "type": "Point", "coordinates": [ -77.1264249, 38.859359 ] } },
{ "type": "Feature", "properties": { "ID": "l263", "address": "10051 Market Cir, Manassas, VA 20110", "doctors": 14 }, "geometry": { "type": "Point", "coordinates": [ -77.4533, 38.740543 ] } },
{ "type": "Feature", "properties": { "ID": "l265", "address": "401 W 7th St, Frederick, MD 21701", "doctors": 3 }, "geometry": { "type": "Point", "coordinates": [ -77.414142, 39.4240618 ] } },
{ "type": "Feature", "properties": { "ID": "l268", "address": "7244 Arlington Blvd, Falls Church, VA 22042", "doctors": 3 }, "geometry": { "type": "Point", "coordinates": [ -77.1956935, 38.8669892 ] } },
{ "type": "Feature", "properties": { "ID": "l269", "address": "14820 Physicians Ln Ste 141, Rockville, MD 20850", "doctors": 2 }, "geometry": { "type": "Point", "coordinates": [ -77.2112346, 39.0992554 ] } },
{ "type": "Feature", "properties": { "ID": "l270", "address": "5827 Columbia Pike Ste 405, Falls Church, VA 22041", "doctors": 3 }, "geometry": { "type": "Point", "coordinates": [ -77.1313627, 38.8486215 ] } },
{ "type": "Feature", "properties": { "ID": "l271", "address": "43063 Peacock Market Plz Ste 125, Chantilly, VA 20152", "doctors": 3 }, "geometry": { "type": "Point", "coordinates": [ -77.5134357, 38.9143642 ] } },
{ "type": "Feature", "properties": { "ID": "l272", "address": "1890 Preston White Dr Ste 200, Reston, VA 20191", "doctors": 8 }, "geometry": { "type": "Point", "coordinates": [ -77.3282798, 38.9420395 ] } },
{ "type": "Feature", "properties": { "ID": "l273", "address": "5952 RICHLAND HWY, Alexandria, VA 22303", "doctors": 1 }, "geometry": { "type": "Point", "coordinates": [ -77.0765927, 38.7900139 ] } },
{ "type": "Feature", "properties": { "ID": "l274", "address": "6115 Backlick Rd, Springfield, VA 22150", "doctors": 2 }, "geometry": { "type": "Point", "coordinates": [ -77.1853829, 38.784276 ] } },
{ "type": "Feature", "properties": { "ID": "l275", "address": "8630 Fenton St, Silver Spring, MD 20910", "doctors": 15 }, "geometry": { "type": "Point", "coordinates": [ -77.0285147, 38.9978611 ] } },
{ "type": "Feature", "properties": { "ID": "l276", "address": "1234 19th St NW Ste 710, Washington, DC 20036", "doctors": 4 }, "geometry": { "type": "Point", "coordinates": [ -77.0437824, 38.9068757 ] } },
{ "type": "Feature", "properties": { "ID": "l277", "address": "3165 Wooster Dr, Bryans Road, MD 20616", "doctors": 5 }, "geometry": { "type": "Point", "coordinates": [ -77.0761655, 38.6261513 ] } },
{ "type": "Feature", "properties": { "ID": "l278", "address": "20600 Gordon Park Sq Ste 190, Ashburn, VA 20147", "doctors": 1 }, "geometry": { "type": "Point", "coordinates": [ -77.4868855, 39.0465008 ] } },
{ "type": "Feature", "properties": { "ID": "l279", "address": "44025 Pipeline Plz Ste 225, Ashburn, VA 20147", "doctors": 4 }, "geometry": { "type": "Point", "coordinates": [ -77.4787731, 39.0211899 ] } },
{ "type": "Feature", "properties": { "ID": "l280", "address": "117 Saint Patricks Dr, Waldorf, MD 20603", "doctors": 16 }, "geometry": { "type": "Point", "coordinates": [ -76.924558, 38.6203865 ] } },
{ "type": "Feature", "properties": { "ID": "l281", "address": "6051 Arlington Blvd Suite A, Falls Church, VA 22044", "doctors": 3 }, "geometry": { "type": "Point", "coordinates": [ -77.1412698, 38.865868 ] } },
{ "type": "Feature", "properties": { "ID": "l282", "address": "6400 Arlington Blvd Ste 80, Falls Church, VA 22042", "doctors": 2 }, "geometry": { "type": "Point", "coordinates": [ -77.1601936, 38.8727836 ] } },
{ "type": "Feature", "properties": { "ID": "l283", "address": "44115 Woodridge Pkwy Ste 280, Leesburg, VA 20176", "doctors": 3 }, "geometry": { "type": "Point", "coordinates": [ -77.4722793, 39.0777294 ] } },
{ "type": "Feature", "properties": { "ID": "l284", "address": "5202 CONCORDIA ST, FAIRFAX, VA 22032", "doctors": 1 }, "geometry": { "type": "Point", "coordinates": [ -77.3111055, 38.813774 ] } },
{ "type": "Feature", "properties": { "ID": "l285", "address": "5601 Seminary Rd Ste 3, Falls Church, VA 22041", "doctors": 6 }, "geometry": { "type": "Point", "coordinates": [ -77.1224486, 38.8461208 ] } },
{ "type": "Feature", "properties": { "ID": "l286", "address": "9300 Dewitt Loop, Fort Belvoir, VA 22060", "doctors": 14 }, "geometry": { "type": "Point", "coordinates": [ -77.1433401, 38.7052552 ] } },
{ "type": "Feature", "properties": { "ID": "l287", "address": "8296 Old Courthouse Rd, Vienna, VA 22182", "doctors": 11 }, "geometry": { "type": "Point", "coordinates": [ -77.2307707, 38.9144937 ] } },
{ "type": "Feature", "properties": { "ID": "l288", "address": "11801 Fingerboard Rd Ste 7, Monrovia, MD 21770", "doctors": 2 }, "geometry": { "type": "Point", "coordinates": [ -77.2526836, 39.3438269 ] } },
{ "type": "Feature", "properties": { "ID": "l289", "address": "12520 Prosperity Dr Ste 300, Silver Spring, MD 20904", "doctors": 24 }, "geometry": { "type": "Point", "coordinates": [ -76.9619071, 39.0617769 ] } },
{ "type": "Feature", "properties": { "ID": "l290", "address": "2230 Gallows Rd Ste 320, Dunn Loring, VA 22027", "doctors": 13 }, "geometry": { "type": "Point", "coordinates": [ -77.2247979, 38.8991782 ] } },
{ "type": "Feature", "properties": { "ID": "l291", "address": "8296 Old Courthouse Rd Ste A, Vienna, VA 22182", "doctors": 14 }, "geometry": { "type": "Point", "coordinates": [ -77.230815, 38.91452 ] } },
{ "type": "Feature", "properties": { "ID": "l292", "address": "3416 Olandwood Ct Ste 206, Olney, MD 20832", "doctors": 4 }, "geometry": { "type": "Point", "coordinates": [ -77.0681091, 39.1553392 ] } },
{ "type": "Feature", "properties": { "ID": "l293", "address": "14228 Smoketown Rd, Woodbridge, VA 22192", "doctors": 3 }, "geometry": { "type": "Point", "coordinates": [ -77.3013219, 38.6402379 ] } },
{ "type": "Feature", "properties": { "ID": "l294", "address": "9380 Forestwood Ln, Manassas Suite E, Manassas, VA 20110", "doctors": 11 }, "geometry": { "type": "Point", "coordinates": [ -77.4792943, 38.7649227 ] } },
{ "type": "Feature", "properties": { "ID": "l295", "address": "11339 Sunset Hills Rd, Reston, VA 20190", "doctors": 6 }, "geometry": { "type": "Point", "coordinates": [ -77.338624, 38.94962 ] } },
{ "type": "Feature", "properties": { "ID": "l296", "address": "19644 Club House Rd Ste 810, Montgomery Village, MD 20886", "doctors": 7 }, "geometry": { "type": "Point", "coordinates": [ -77.205671, 39.1739502 ] } },
{ "type": "Feature", "properties": { "ID": "l297", "address": "14333 Laurel Bowie Rd Ste 100, Laurel, MD 20708", "doctors": 8 }, "geometry": { "type": "Point", "coordinates": [ -76.8460442, 39.086926 ] } },
{ "type": "Feature", "properties": { "ID": "l298", "address": "6201 Greenbelt Rd, College Park, MD 20740", "doctors": 15 }, "geometry": { "type": "Point", "coordinates": [ -76.906728, 38.9964147 ] } },
{ "type": "Feature", "properties": { "ID": "l299", "address": "14634 Lee Hwy, Gainesville, VA 20155", "doctors": 1 }, "geometry": { "type": "Point", "coordinates": [ -77.6269202, 38.793534 ] } },
{ "type": "Feature", "properties": { "ID": "l300", "address": "19735 Germantown Rd, Germantown, MD 20874", "doctors": 3 }, "geometry": { "type": "Point", "coordinates": [ -77.2641324, 39.1798318 ] } },
{ "type": "Feature", "properties": { "ID": "l301", "address": "4302 Saint Barnabas Rd Ste F, Temple Hills, MD 20748", "doctors": 3 }, "geometry": { "type": "Point", "coordinates": [ -76.9409449, 38.8303857 ] } },
{ "type": "Feature", "properties": { "ID": "l302", "address": "13801 Heathcote Blvd Ste 100, Gainesville, VA 20155", "doctors": 61 }, "geometry": { "type": "Point", "coordinates": [ -77.6104024, 38.8092028 ] } },
{ "type": "Feature", "properties": { "ID": "l304", "address": "4301 Jones Bridge Rd, Bethesda, MD 20814", "doctors": 7 }, "geometry": { "type": "Point", "coordinates": [ -77.0862793, 39.0018561 ] } },
{ "type": "Feature", "properties": { "ID": "l305", "address": "7901 YANCEY DR, FALLS CHURCH, VA 22042", "doctors": 1 }, "geometry": { "type": "Point", "coordinates": [ -77.215784, 38.8738699 ] } },
{ "type": "Feature", "properties": { "ID": "l306", "address": "7825 Tuckerman Ln Ste 208, Potomac, MD 20854", "doctors": 3 }, "geometry": { "type": "Point", "coordinates": [ -77.1560995, 39.0405782 ] } },
{ "type": "Feature", "properties": { "ID": "l307", "address": "4601 N Park Ave, Chevy Chase, MD 20815", "doctors": 4 }, "geometry": { "type": "Point", "coordinates": [ -77.0913855, 38.963879 ] } },
{ "type": "Feature", "properties": { "ID": "l308", "address": "12217 APPLE ORCHARD CT, FAIRFAX, VA 22033", "doctors": 1 }, "geometry": { "type": "Point", "coordinates": [ -77.3699803, 38.8681216 ] } },
{ "type": "Feature", "properties": { "ID": "l309", "address": "2923 Olney Sandy Spring Rd Ste D, Olney, MD 20832", "doctors": 4 }, "geometry": { "type": "Point", "coordinates": [ -77.0598643, 39.1507206 ] } },
{ "type": "Feature", "properties": { "ID": "l310", "address": "2021 K St NW Ste 315, Washington, DC 20006", "doctors": 3 }, "geometry": { "type": "Point", "coordinates": [ -77.0457183, 38.9029253 ] } },
{ "type": "Feature", "properties": { "ID": "l311", "address": "237 Kentlands Blvd, Gaithersburg, MD 20878", "doctors": 9 }, "geometry": { "type": "Point", "coordinates": [ -77.2392355, 39.1250983 ] } },
{ "type": "Feature", "properties": { "ID": "l312", "address": "230 Fort Evans Rd NE, Leesburg, VA 20176", "doctors": 9 }, "geometry": { "type": "Point", "coordinates": [ -77.5363029, 39.1106774 ] } },
{ "type": "Feature", "properties": { "ID": "l313", "address": "5225 Wisconsin Ave NW Ste 303, Washington, DC 20015", "doctors": 4 }, "geometry": { "type": "Point", "coordinates": [ -77.0840949, 38.9584083 ] } },
{ "type": "Feature", "properties": { "ID": "l314", "address": "46175 Westlake Dr Ste 130, Sterling, VA 20165", "doctors": 5 }, "geometry": { "type": "Point", "coordinates": [ -77.4031483, 39.0342304 ] } },
{ "type": "Feature", "properties": { "ID": "l315", "address": "11904 Darnestown Rd Ste D, Gaithersburg, MD 20878", "doctors": 3 }, "geometry": { "type": "Point", "coordinates": [ -77.2469088, 39.1136469 ] } },
{ "type": "Feature", "properties": { "ID": "l316", "address": "1341 Pennsylvania Ave SE, Washington, DC 20003", "doctors": 4 }, "geometry": { "type": "Point", "coordinates": [ -76.9874039, 38.880661 ] } },
{ "type": "Feature", "properties": { "ID": "l317", "address": "4435 Benning Rd NE, Washington, DC 20019", "doctors": 27 }, "geometry": { "type": "Point", "coordinates": [ -76.9390315, 38.8910103 ] } },
{ "type": "Feature", "properties": { "ID": "l318", "address": "3400 Payne Street Suite 101, Falls Church, VA 22041", "doctors": 12 }, "geometry": { "type": "Point", "coordinates": [ -77.1327712, 38.8531305 ] } },
{ "type": "Feature", "properties": { "ID": "l319", "address": "5864 Hubbard Dr, Rockville, MD 20852", "doctors": 1 }, "geometry": { "type": "Point", "coordinates": [ -77.119207, 39.054596 ] } },
{ "type": "Feature", "properties": { "ID": "l321", "address": "110 Luke Ave SW, Bolling Afb, DC 20032", "doctors": 2 }, "geometry": { "type": "Point", "coordinates": [ -77.0167509, 38.8451544 ] } },
{ "type": "Feature", "properties": { "ID": "l322", "address": "3900 16th St NW Apt 238, Washington, DC 20011", "doctors": 1 }, "geometry": { "type": "Point", "coordinates": [ -77.0372402, 38.9393218 ] } },
{ "type": "Feature", "properties": { "ID": "l323", "address": "1411 Key Dr, Alexandria, VA 22302", "doctors": 1 }, "geometry": { "type": "Point", "coordinates": [ -77.0878111, 38.8186638 ] } },
{ "type": "Feature", "properties": { "ID": "l324", "address": "2807 Duke St, Alexandria, VA 22314", "doctors": 5 }, "geometry": { "type": "Point", "coordinates": [ -77.0786836, 38.8075939 ] } },
{ "type": "Feature", "properties": { "ID": "l326", "address": "6120 Brandon Ave., Springfield, VA 22150", "doctors": 2 }, "geometry": { "type": "Point", "coordinates": [ -77.1822606, 38.7836678 ] } },
{ "type": "Feature", "properties": { "ID": "l327", "address": "22 Montgomery Village Ave, Gaithersburg, MD 20879", "doctors": 4 }, "geometry": { "type": "Point", "coordinates": [ -77.2089486, 39.1557975 ] } },
{ "type": "Feature", "properties": { "ID": "l328", "address": "947 S George Mason Dr, Arlington, VA 22204", "doctors": 5 }, "geometry": { "type": "Point", "coordinates": [ -77.10153, 38.859832 ] } },
{ "type": "Feature", "properties": { "ID": "l329", "address": "5809 Nicholson Ln, Rockville, MD 20852", "doctors": 4 }, "geometry": { "type": "Point", "coordinates": [ -77.1152795, 39.0453999 ] } },
{ "type": "Feature", "properties": { "ID": "l330", "address": "6408 GROVEDALE DR, FRANCONIA, VA 22310", "doctors": 3 }, "geometry": { "type": "Point", "coordinates": [ -77.1485613, 38.7776668 ] } },
{ "type": "Feature", "properties": { "ID": "l331", "address": "4216 Evergreen Ln Ste 113, Annandale, VA 22003", "doctors": 3 }, "geometry": { "type": "Point", "coordinates": [ -77.1871849, 38.8326269 ] } },
{ "type": "Feature", "properties": { "ID": "l332", "address": "730 24th St NW Ste 9, Washington, DC 20037", "doctors": 4 }, "geometry": { "type": "Point", "coordinates": [ -77.051763, 38.8989533 ] } },
{ "type": "Feature", "properties": { "ID": "l333", "address": "6404 Seven Corners Pl Ste J, Falls Church, VA 22044", "doctors": 2 }, "geometry": { "type": "Point", "coordinates": [ -77.158318, 38.8708786 ] } },
{ "type": "Feature", "properties": { "ID": "l334", "address": "313 Park Ave Ste 103, Falls Church, VA 22046", "doctors": 3 }, "geometry": { "type": "Point", "coordinates": [ -77.1738253, 38.8853422 ] } },
{ "type": "Feature", "properties": { "ID": "l336", "address": "7100 Baltimore Ave Ste 200, College Park, MD 20740", "doctors": 2 }, "geometry": { "type": "Point", "coordinates": [ -76.9383825, 38.9767299 ] } },
{ "type": "Feature", "properties": { "ID": "l337", "address": "6306 Kirby Rd, Clinton, MD 20735", "doctors": 2 }, "geometry": { "type": "Point", "coordinates": [ -76.898317, 38.787378 ] } },
{ "type": "Feature", "properties": { "ID": "l338", "address": "1401 Mercantile Ln Ste 583, Upper Marlboro, MD 20774", "doctors": 2 }, "geometry": { "type": "Point", "coordinates": [ -76.836434, 38.9092554 ] } },
{ "type": "Feature", "properties": { "ID": "l339", "address": "833 Rockville Pike Ste G, Rockville, MD 20852", "doctors": 1 }, "geometry": { "type": "Point", "coordinates": [ -77.138636, 39.074726 ] } },
{ "type": "Feature", "properties": { "ID": "l340", "address": "3905 National Dr Ste 260, Burtonsville, MD 20866", "doctors": 2 }, "geometry": { "type": "Point", "coordinates": [ -76.930951, 39.1125952 ] } },
{ "type": "Feature", "properties": { "ID": "l341", "address": "6400 Seven Corners Pl, Falls Church, VA 22044", "doctors": 2 }, "geometry": { "type": "Point", "coordinates": [ -77.1575599, 38.8705152 ] } },
{ "type": "Feature", "properties": { "ID": "l342", "address": "555 Grove St Ste 108, Herndon, VA 20170", "doctors": 1 }, "geometry": { "type": "Point", "coordinates": [ -77.3797245, 38.9668168 ] } },
{ "type": "Feature", "properties": { "ID": "l343", "address": "1060 W Perimeter Rd, Jb Andrews, MD 20762", "doctors": 21 }, "geometry": { "type": "Point", "coordinates": [ -76.8954253, 38.80871 ] } },
{ "type": "Feature", "properties": { "ID": "l344", "address": "1605 Foxhall Rd NW, Washington, DC 20007", "doctors": 3 }, "geometry": { "type": "Point", "coordinates": [ -77.0838146, 38.9111923 ] } },
{ "type": "Feature", "properties": { "ID": "l345", "address": "8328 Traford Ln, Springfield, VA 22152", "doctors": 4 }, "geometry": { "type": "Point", "coordinates": [ -77.2325383, 38.7824453 ] } },
{ "type": "Feature", "properties": { "ID": "l347", "address": "1160 Varnum St NE Ste 311, Washington, DC 20017", "doctors": 1 }, "geometry": { "type": "Point", "coordinates": [ -76.9915342, 38.9441522 ] } },
{ "type": "Feature", "properties": { "ID": "l348", "address": "8212 Old Courthouse Rd, Vienna, VA 22182", "doctors": 2 }, "geometry": { "type": "Point", "coordinates": [ -77.2287387, 38.9128736 ] } },
{ "type": "Feature", "properties": { "ID": "l349", "address": "5727 Centre Square Dr, Centreville, VA 20120", "doctors": 10 }, "geometry": { "type": "Point", "coordinates": [ -77.4300824, 38.8398342 ] } },
{ "type": "Feature", "properties": { "ID": "l350", "address": "FREDERICK CO SQ, FREDERICK, MD 21701", "doctors": 1 }, "geometry": { "type": "Point", "coordinates": [ -77.4412237, 39.4183477 ] } },
{ "type": "Feature", "properties": { "ID": "l351", "address": "2141 K ST NW, WASHINGTON, DC 20037", "doctors": 1 }, "geometry": { "type": "Point", "coordinates": [ -77.0479875, 38.902905 ] } },
{ "type": "Feature", "properties": { "ID": "l352", "address": "9110 Railroad Dr Ste 201, Manassas, VA 20111", "doctors": 7 }, "geometry": { "type": "Point", "coordinates": [ -77.4412347, 38.7636944 ] } },
{ "type": "Feature", "properties": { "ID": "l354", "address": "5206 Dawes Ave, Alexandria, VA 22311", "doctors": 1 }, "geometry": { "type": "Point", "coordinates": [ -77.118809, 38.839774 ] } },
{ "type": "Feature", "properties": { "ID": "l355", "address": "10482 Sudley Manor Dr, Manassas, VA 20109", "doctors": 5 }, "geometry": { "type": "Point", "coordinates": [ -77.5100198, 38.7890918 ] } },
{ "type": "Feature", "properties": { "ID": "l356", "address": "7101 Annapolis Rd, Hyattsville, MD 20784", "doctors": 1 }, "geometry": { "type": "Point", "coordinates": [ -76.8937365, 38.9461871 ] } },
{ "type": "Feature", "properties": { "ID": "l357", "address": "7787 Leesburg Pike Ste 200, Falls Church, VA 22043", "doctors": 7 }, "geometry": { "type": "Point", "coordinates": [ -77.2145718, 38.9080146 ] } },
{ "type": "Feature", "properties": { "ID": "l358", "address": "5765 Burke Centre Pkwy Ste M, Burke, VA 22015", "doctors": 1 }, "geometry": { "type": "Point", "coordinates": [ -77.3182182, 38.7997355 ] } },
{ "type": "Feature", "properties": { "ID": "l359", "address": "2800 S Shirlington Rd Ste 770, Arlington, VA 22206", "doctors": 2 }, "geometry": { "type": "Point", "coordinates": [ -77.0844903, 38.8424687 ] } },
{ "type": "Feature", "properties": { "ID": "l360", "address": "8218 Wisconsin Ave Ste 317, Bethesda, MD 20814", "doctors": 1 }, "geometry": { "type": "Point", "coordinates": [ -77.0962616, 38.9921674 ] } },
{ "type": "Feature", "properties": { "ID": "l361", "address": "1145 19th St NW Ste 202, Washington, DC 20036", "doctors": 1 }, "geometry": { "type": "Point", "coordinates": [ -77.0429506, 38.9050499 ] } },
{ "type": "Feature", "properties": { "ID": "l362", "address": "1234 19th St NW, Washington, DC 20036", "doctors": 10 }, "geometry": { "type": "Point", "coordinates": [ -77.0437183, 38.9068626 ] } },
{ "type": "Feature", "properties": { "ID": "l363", "address": "107 E Holly Ave Ste 5, Sterling, VA 20164", "doctors": 1 }, "geometry": { "type": "Point", "coordinates": [ -77.4026053, 39.0004826 ] } },
{ "type": "Feature", "properties": { "ID": "l364", "address": "2021 K St NW Ste T115, Washington, DC 20006", "doctors": 15 }, "geometry": { "type": "Point", "coordinates": [ -77.0457423, 38.9029568 ] } },
{ "type": "Feature", "properties": { "ID": "l366", "address": "4910 Massachusetts Ave NW Ste 310, Washington, DC 20016", "doctors": 6 }, "geometry": { "type": "Point", "coordinates": [ -77.0976936, 38.9461158 ] } },
{ "type": "Feature", "properties": { "ID": "l367", "address": "19513 Doctors Dr, Germantown, MD 20874", "doctors": 4 }, "geometry": { "type": "Point", "coordinates": [ -77.2690034, 39.1748732 ] } },
{ "type": "Feature", "properties": { "ID": "l368", "address": "1301 N Highland St, Arlington, VA 22201", "doctors": 4 }, "geometry": { "type": "Point", "coordinates": [ -77.0949598, 38.888791 ] } },
{ "type": "Feature", "properties": { "ID": "l369", "address": "7641 Leesburg Pike, Falls Church, VA 22043", "doctors": 6 }, "geometry": { "type": "Point", "coordinates": [ -77.2093254, 38.9065161 ] } },
{ "type": "Feature", "properties": { "ID": "l370", "address": "5002 Massachusetts Ave NW, Washington, DC 20016", "doctors": 1 }, "geometry": { "type": "Point", "coordinates": [ -77.0989611, 38.947062 ] } },
{ "type": "Feature", "properties": { "ID": "l371", "address": "8170 Silverbrook Rd Ste D, Lorton, VA 22079", "doctors": 8 }, "geometry": { "type": "Point", "coordinates": [ -77.2273577, 38.7051985 ] } },
{ "type": "Feature", "properties": { "ID": "l372", "address": "1712 I St NW Ste 600, Washington, DC 20006", "doctors": 2 }, "geometry": { "type": "Point", "coordinates": [ -77.0402587, 38.9011233 ] } },
{ "type": "Feature", "properties": { "ID": "l373", "address": "3541 W Braddock Rd Ste 204, Alexandria, VA 22302", "doctors": 2 }, "geometry": { "type": "Point", "coordinates": [ -77.0905633, 38.8275472 ] } },
{ "type": "Feature", "properties": { "ID": "l376", "address": "1629 K St NW, Washington, DC 20006", "doctors": 14 }, "geometry": { "type": "Point", "coordinates": [ -77.037826, 38.9028692 ] } },
{ "type": "Feature", "properties": { "ID": "l377", "address": "6231 Leesburg Pike Ste 304, Falls Church, VA 22044", "doctors": 2 }, "geometry": { "type": "Point", "coordinates": [ -77.1532524, 38.8676644 ] } },
{ "type": "Feature", "properties": { "ID": "l379", "address": "15 Pitt Ct, Rockville, MD 20850", "doctors": 1 }, "geometry": { "type": "Point", "coordinates": [ -77.1685124, 39.1058915 ] } },
{ "type": "Feature", "properties": { "ID": "l381", "address": "2955 Crain Hwy, Waldorf, MD 20601", "doctors": 12 }, "geometry": { "type": "Point", "coordinates": [ -76.9073133, 38.6308004 ] } },
{ "type": "Feature", "properties": { "ID": "l382", "address": "184 THOMAS JOHNSON DR, FREDERICK, MD 21702", "doctors": 1 }, "geometry": { "type": "Point", "coordinates": [ -77.4057796, 39.440255 ] } },
{ "type": "Feature", "properties": { "ID": "l384", "address": "6811 ROSEMONT DR, MCLEAN, VA 22101", "doctors": 1 }, "geometry": { "type": "Point", "coordinates": [ -77.1788237, 38.9234377 ] } },
{ "type": "Feature", "properties": { "ID": "l385", "address": "10 W College Ter, Frederick, MD 21701", "doctors": 2 }, "geometry": { "type": "Point", "coordinates": [ -77.4244262, 39.4137367 ] } },
{ "type": "Feature", "properties": { "ID": "l386", "address": "8316 Arlington Blvd Ste 218, Fairfax, VA 22031", "doctors": 2 }, "geometry": { "type": "Point", "coordinates": [ -77.2323966, 38.8664486 ] } },
{ "type": "Feature", "properties": { "ID": "l387", "address": "14812 Physicians Ln Ste 262, Rockville, MD 20850", "doctors": 1 }, "geometry": { "type": "Point", "coordinates": [ -77.2111981, 39.0999799 ] } },
{ "type": "Feature", "properties": { "ID": "l388", "address": "6120 Brandon Ave Ste 308, Springfield, VA 22150", "doctors": 18 }, "geometry": { "type": "Point", "coordinates": [ -77.1822601, 38.7836525 ] } },
{ "type": "Feature", "properties": { "ID": "l389", "address": "7015a Manchester Blvd, Alexandria, VA 22310", "doctors": 2 }, "geometry": { "type": "Point", "coordinates": [ -77.1525079, 38.764792 ] } },
{ "type": "Feature", "properties": { "ID": "l390", "address": "2200 Opitz Blvd Ste 395, Woodbridge, VA 22191", "doctors": 2 }, "geometry": { "type": "Point", "coordinates": [ -77.2791272, 38.6335317 ] } },
{ "type": "Feature", "properties": { "ID": "l391", "address": "5454 Wisconsin Ave Ste 635, Chevy Chase, MD 20815", "doctors": 2 }, "geometry": { "type": "Point", "coordinates": [ -77.0870315, 38.9626341 ] } },
{ "type": "Feature", "properties": { "ID": "l392", "address": "8303 Arlington Blvd Ste 107, Fairfax, VA 22031", "doctors": 4 }, "geometry": { "type": "Point", "coordinates": [ -77.2311568, 38.8644311 ] } },
{ "type": "Feature", "properties": { "ID": "l394", "address": "3428 Rutgers St, Hyattsville, MD 20783", "doctors": 1 }, "geometry": { "type": "Point", "coordinates": [ -76.9555068, 38.983382 ] } },
{ "type": "Feature", "properties": { "ID": "l395", "address": "2936 Chain Bridge Rd Ste 200, Oakton, VA 22124", "doctors": 2 }, "geometry": { "type": "Point", "coordinates": [ -77.2999618, 38.8819793 ] } },
{ "type": "Feature", "properties": { "ID": "l399", "address": "9126 Rothbury Dr, Montgomery Village, MD 20886", "doctors": 4 }, "geometry": { "type": "Point", "coordinates": [ -77.1888421, 39.1845646 ] } },
{ "type": "Feature", "properties": { "ID": "l402", "address": "1234 19th St NW Ste 801, Washington, DC 20036", "doctors": 1 }, "geometry": { "type": "Point", "coordinates": [ -77.0437649, 38.9068574 ] } },
{ "type": "Feature", "properties": { "ID": "l403", "address": "9010 Lorton Station Blvd Ste 135, Lorton, VA 22079", "doctors": 16 }, "geometry": { "type": "Point", "coordinates": [ -77.2149744, 38.7127479 ] } },
{ "type": "Feature", "properties": { "ID": "l404", "address": "250 Kennedy St NW, Washington, DC 20011", "doctors": 6 }, "geometry": { "type": "Point", "coordinates": [ -77.0158839, 38.9563774 ] } },
{ "type": "Feature", "properties": { "ID": "l405", "address": "1335 Carpers Farm Way, Vienna, VA 22182", "doctors": 1 }, "geometry": { "type": "Point", "coordinates": [ -77.2950833, 38.962875 ] } },
{ "type": "Feature", "properties": { "ID": "l406", "address": "105 Centennial St Ste C, La Plata, MD 20646", "doctors": 2 }, "geometry": { "type": "Point", "coordinates": [ -76.9794102, 38.5274017 ] } },
{ "type": "Feature", "properties": { "ID": "l407", "address": "7115 Leesburg Pike Ste 320, Falls Church, VA 22043", "doctors": 16 }, "geometry": { "type": "Point", "coordinates": [ -77.1918313, 38.8946818 ] } },
{ "type": "Feature", "properties": { "ID": "l408", "address": "8201 Greensboro Dr Ste 601, Mclean, VA 22102", "doctors": 1 }, "geometry": { "type": "Point", "coordinates": [ -77.2273075, 38.9223916 ] } },
{ "type": "Feature", "properties": { "ID": "l409", "address": "44345 Premier Plz Ste 220, Ashburn, VA 20147", "doctors": 8 }, "geometry": { "type": "Point", "coordinates": [ -77.467258, 39.0609819 ] } },
{ "type": "Feature", "properties": { "ID": "l411", "address": "6116 Rolling Rd Ste 316, Springfield, VA 22152", "doctors": 10 }, "geometry": { "type": "Point", "coordinates": [ -77.2381331, 38.7842782 ] } },
{ "type": "Feature", "properties": { "ID": "l412", "address": "2579 John Milton Dr Ste 350, Herndon, VA 20171", "doctors": 3 }, "geometry": { "type": "Point", "coordinates": [ -77.3763573, 38.9271627 ] } },
{ "type": "Feature", "properties": { "ID": "l413", "address": "8270 Greensboro Dr, McLean, VA 22102", "doctors": 1 }, "geometry": { "type": "Point", "coordinates": [ -77.2305462, 38.9235806 ] } },
{ "type": "Feature", "properties": { "ID": "l414", "address": "7100 Baltimore Ave Ste 309, College Park, MD 20740", "doctors": 2 }, "geometry": { "type": "Point", "coordinates": [ -76.9384042, 38.9767316 ] } },
{ "type": "Feature", "properties": { "ID": "l415", "address": "131 Elden St Ste 101, Herndon, VA 20170", "doctors": 2 }, "geometry": { "type": "Point", "coordinates": [ -77.367025, 38.9655443 ] } },
{ "type": "Feature", "properties": { "ID": "l416", "address": "301 Maple Ave W, Vienna, VA 22180", "doctors": 5 }, "geometry": { "type": "Point", "coordinates": [ -77.2708215, 38.8981249 ] } },
{ "type": "Feature", "properties": { "ID": "l417", "address": "6828 Commerce St Ste 104, Springfield, VA 22150", "doctors": 1 }, "geometry": { "type": "Point", "coordinates": [ -77.184982, 38.782501 ] } },
{ "type": "Feature", "properties": { "ID": "l418", "address": "8303 Arlington Blvd Ste 101, Fairfax, VA 22031", "doctors": 3 }, "geometry": { "type": "Point", "coordinates": [ -77.2315983, 38.8645188 ] } },
{ "type": "Feature", "properties": { "ID": "l419", "address": "11670 Sudley Manor Dr, Manassas, VA 20109", "doctors": 11 }, "geometry": { "type": "Point", "coordinates": [ -77.5176243, 38.7856375 ] } },
{ "type": "Feature", "properties": { "ID": "l420", "address": "8120 Fenton St Ste 100, Silver Spring, MD 20910", "doctors": 11 }, "geometry": { "type": "Point", "coordinates": [ -77.024309, 38.9914317 ] } },
{ "type": "Feature", "properties": { "ID": "l421", "address": "1875 I St NW Ste 500, Washington, DC 20006", "doctors": 11 }, "geometry": { "type": "Point", "coordinates": [ -77.0418938, 38.9009646 ] } },
{ "type": "Feature", "properties": { "ID": "l422", "address": "1103 Navahoe Dr, Silver Spring, MD 20903", "doctors": 1 }, "geometry": { "type": "Point", "coordinates": [ -76.9898451, 38.9938388 ] } },
{ "type": "Feature", "properties": { "ID": "l423", "address": "7500 Hanover Pkwy Ste 106, Greenbelt, MD 20770", "doctors": 7 }, "geometry": { "type": "Point", "coordinates": [ -76.8756741, 38.9926021 ] } },
{ "type": "Feature", "properties": { "ID": "l425", "address": "2136 Gallows Rd Ste B, Dunn Loring, VA 22027", "doctors": 8 }, "geometry": { "type": "Point", "coordinates": [ -77.2237837, 38.9030453 ] } },
{ "type": "Feature", "properties": { "ID": "l426", "address": "14999 Health Center Dr Ste 206, Bowie, MD 20716", "doctors": 1 }, "geometry": { "type": "Point", "coordinates": [ -76.746236, 38.9497754 ] } },
{ "type": "Feature", "properties": { "ID": "l427", "address": "9005 Fern Park Dr, Burke, VA 22015", "doctors": 1 }, "geometry": { "type": "Point", "coordinates": [ -77.256307, 38.808594 ] } },
{ "type": "Feature", "properties": { "ID": "l428", "address": "124 Rosewick Rd, La Plata, MD 20646", "doctors": 14 }, "geometry": { "type": "Point", "coordinates": [ -76.9833427, 38.5563152 ] } },
{ "type": "Feature", "properties": { "ID": "l429", "address": "12600 Lake Ridge Dr, Woodbridge, VA 22192", "doctors": 1 }, "geometry": { "type": "Point", "coordinates": [ -77.2743224, 38.6791938 ] } },
{ "type": "Feature", "properties": { "ID": "l430", "address": "9673 Main St Ste C, Fairfax, VA 22031", "doctors": 1 }, "geometry": { "type": "Point", "coordinates": [ -77.27941, 38.841805 ] } },
{ "type": "Feature", "properties": { "ID": "l432", "address": "809 E Swan Creek Rd, Fort Washington, MD 20744", "doctors": 1 }, "geometry": { "type": "Point", "coordinates": [ -76.9938948, 38.7243515 ] } },
{ "type": "Feature", "properties": { "ID": "l433", "address": "1746 Columbia Rd NW, Washington, DC 20009", "doctors": 2 }, "geometry": { "type": "Point", "coordinates": [ -77.040491, 38.9238027 ] } },
{ "type": "Feature", "properties": { "ID": "l434", "address": "462 Herndon Pkwy, Herndon, VA 20170", "doctors": 1 }, "geometry": { "type": "Point", "coordinates": [ -77.3767892, 38.9575857 ] } },
{ "type": "Feature", "properties": { "ID": "l435", "address": "10215 Fernwood Rd Ste 415, Bethesda, MD 20817", "doctors": 8 }, "geometry": { "type": "Point", "coordinates": [ -77.1347732, 39.0240692 ] } },
{ "type": "Feature", "properties": { "ID": "l436", "address": "159 HILLWOOD AVE, FALLS CHURCH, VA 22046", "doctors": 2 }, "geometry": { "type": "Point", "coordinates": [ -77.1715452, 38.8796324 ] } },
{ "type": "Feature", "properties": { "ID": "l437", "address": "1325 18th St NW Ste 206, Washington, DC 20036", "doctors": 3 }, "geometry": { "type": "Point", "coordinates": [ -77.0413672, 38.9080649 ] } },
{ "type": "Feature", "properties": { "ID": "l438", "address": "47100 Community Plz Ste 165, Sterling, VA 20164", "doctors": 3 }, "geometry": { "type": "Point", "coordinates": [ -77.3756878, 39.0144271 ] } },
{ "type": "Feature", "properties": { "ID": "l439", "address": "8150 Leesburg Pike Ste 900, Vienna, VA 22182", "doctors": 4 }, "geometry": { "type": "Point", "coordinates": [ -77.2266718, 38.91645 ] } },
{ "type": "Feature", "properties": { "ID": "l441", "address": "2730 University Blvd W Ste 1010, Silver Spring, MD 20902", "doctors": 3 }, "geometry": { "type": "Point", "coordinates": [ -77.0558617, 39.0393153 ] } },
{ "type": "Feature", "properties": { "ID": "l442", "address": "5130 Duke St Ste 4, Alexandria, VA 22304", "doctors": 4 }, "geometry": { "type": "Point", "coordinates": [ -77.1205388, 38.8119541 ] } },
{ "type": "Feature", "properties": { "ID": "l443", "address": "13900 Noblewood Plz, Woodbridge, VA 22193", "doctors": 2 }, "geometry": { "type": "Point", "coordinates": [ -77.3157052, 38.6513526 ] } },
{ "type": "Feature", "properties": { "ID": "l444", "address": "9470 Annapolis Rd, Lanham, MD 20706", "doctors": 4 }, "geometry": { "type": "Point", "coordinates": [ -76.8410587, 38.9656088 ] } },
{ "type": "Feature", "properties": { "ID": "l445", "address": "4229 Lafayette Center Dr Ste 1400, Chantilly, VA 20151", "doctors": 1 }, "geometry": { "type": "Point", "coordinates": [ -77.4737781, 38.9088974 ] } },
{ "type": "Feature", "properties": { "ID": "l446", "address": "1734 Elton Rd Ste 231, Silver Spring, MD 20903", "doctors": 10 }, "geometry": { "type": "Point", "coordinates": [ -76.9730635, 39.0200604 ] } },
{ "type": "Feature", "properties": { "ID": "l447", "address": "23212 Brewers Tavern Way, Clarksburg, MD 20871", "doctors": 2 }, "geometry": { "type": "Point", "coordinates": [ -77.2767822, 39.237575 ] } },
{ "type": "Feature", "properties": { "ID": "l448", "address": "11345 Sunset Hills Rd, Reston, VA 20190", "doctors": 4 }, "geometry": { "type": "Point", "coordinates": [ -77.3391277, 38.9498853 ] } },
{ "type": "Feature", "properties": { "ID": "l450", "address": "6471 Marlboro Pike, District Heights, MD 20747", "doctors": 55 }, "geometry": { "type": "Point", "coordinates": [ -76.8966526, 38.8521422 ] } },
{ "type": "Feature", "properties": { "ID": "l451", "address": "2800 Eisenhower Ave Ste 230, Alexandria, VA 22314", "doctors": 9 }, "geometry": { "type": "Point", "coordinates": [ -77.0819275, 38.8016152 ] } },
{ "type": "Feature", "properties": { "ID": "l452", "address": "6710 Oxon Hill Rd Ste 350, Oxon Hill, MD 20745", "doctors": 5 }, "geometry": { "type": "Point", "coordinates": [ -77.001727, 38.7978857 ] } },
{ "type": "Feature", "properties": { "ID": "l453", "address": "2969 Chain Bridge Rd, Oakton, VA 22124", "doctors": 2 }, "geometry": { "type": "Point", "coordinates": [ -77.302399, 38.8793349 ] } },
{ "type": "Feature", "properties": { "ID": "l454", "address": "13873 Park Center Rd Ste 137, Herndon, VA 20171", "doctors": 27 }, "geometry": { "type": "Point", "coordinates": [ -77.4286908, 38.9344363 ] } },
{ "type": "Feature", "properties": { "ID": "l455", "address": "13401 New Hampshire Ave, Silver Spring, MD 20904", "doctors": 4 }, "geometry": { "type": "Point", "coordinates": [ -77.0013415, 39.076006 ] } },
{ "type": "Feature", "properties": { "ID": "l456", "address": "24565 Dulles Landing Dr Ste 190, Sterling, VA 20166", "doctors": 3 }, "geometry": { "type": "Point", "coordinates": [ -77.5227231, 38.937652 ] } },
{ "type": "Feature", "properties": { "ID": "l457", "address": "6316 Castle Pl Ste 201, Falls Church, VA 22044", "doctors": 10 }, "geometry": { "type": "Point", "coordinates": [ -77.155635, 38.871068 ] } },
{ "type": "Feature", "properties": { "ID": "l458", "address": "243 Church St NW Nw Suite 300C, Vienna, VA 22180", "doctors": 3 }, "geometry": { "type": "Point", "coordinates": [ -77.2699012, 38.8997701 ] } },
{ "type": "Feature", "properties": { "ID": "l459", "address": "14 Pidgeon Hill Dr Ste 200, Sterling, VA 20165", "doctors": 3 }, "geometry": { "type": "Point", "coordinates": [ -77.4113061, 39.0376457 ] } },
{ "type": "Feature", "properties": { "ID": "l460", "address": "107 AMBASSADOR DR STE 101, Manassas, VA 20109", "doctors": 3 }, "geometry": { "type": "Point", "coordinates": [ -77.5169192, 38.7938253 ] } },
{ "type": "Feature", "properties": { "ID": "l461", "address": "31 CENTER Dr S, Bethesda, MD 20892", "doctors": 1 }, "geometry": { "type": "Point", "coordinates": [ -77.1013313, 39.0035707 ] } },
{ "type": "Feature", "properties": { "ID": "l462", "address": "12164 Central Ave, Bowie, MD 20721", "doctors": 8 }, "geometry": { "type": "Point", "coordinates": [ -76.7946459, 38.9011245 ] } },
{ "type": "Feature", "properties": { "ID": "l463", "address": "6178 Grovedale Ct Ste 100, Alexandria, VA 22310", "doctors": 2 }, "geometry": { "type": "Point", "coordinates": [ -77.1502195, 38.779753 ] } },
{ "type": "Feature", "properties": { "ID": "l464", "address": "4090 Lafayette Center Dr, Chantilly, VA 20151", "doctors": 3 }, "geometry": { "type": "Point", "coordinates": [ -77.4701332, 38.9091007 ] } },
{ "type": "Feature", "properties": { "ID": "l465", "address": "3650 S Glebe Rd Ste 195, Arlington, VA 22202", "doctors": 6 }, "geometry": { "type": "Point", "coordinates": [ -77.0511398, 38.8425273 ] } },
{ "type": "Feature", "properties": { "ID": "l466", "address": "25401 Eastern Marketplace Plz Ste 165, Chantilly, VA 20152", "doctors": 5 }, "geometry": { "type": "Point", "coordinates": [ -77.4890622, 38.9155223 ] } },
{ "type": "Feature", "properties": { "ID": "l467", "address": "2415 Musgrove Rd Ste 309, Silver Spring, MD 20904", "doctors": 1 }, "geometry": { "type": "Point", "coordinates": [ -76.9605168, 39.0674605 ] } },
{ "type": "Feature", "properties": { "ID": "l468", "address": "1450 Mercantile Ln Ste 207a, Upper Marlboro, MD 20774", "doctors": 2 }, "geometry": { "type": "Point", "coordinates": [ -76.8390764, 38.910061 ] } },
{ "type": "Feature", "properties": { "ID": "l470", "address": "13623 Georgia Ave Suite H1, Silver Spring, MD 20906", "doctors": 4 }, "geometry": { "type": "Point", "coordinates": [ -77.072231, 39.079429 ] } },
{ "type": "Feature", "properties": { "ID": "l471", "address": "4660 Kenmore Ave, Alexandria, VA 22304", "doctors": 4 }, "geometry": { "type": "Point", "coordinates": [ -77.1104644, 38.8282467 ] } },
{ "type": "Feature", "properties": { "ID": "l472", "address": "8219 Leesburg Pike Ste 100, Vienna, VA 22182", "doctors": 3 }, "geometry": { "type": "Point", "coordinates": [ -77.230805, 38.91662 ] } },
{ "type": "Feature", "properties": { "ID": "l473", "address": "13890 Braddock Rd Ste 305, Centreville, VA 20121", "doctors": 1 }, "geometry": { "type": "Point", "coordinates": [ -77.4285833, 38.8370137 ] } },
{ "type": "Feature", "properties": { "ID": "l474", "address": "311 Park Ave Ste 3, Falls Church, VA 22046", "doctors": 5 }, "geometry": { "type": "Point", "coordinates": [ -77.173266, 38.884912 ] } },
{ "type": "Feature", "properties": { "ID": "l475", "address": "107 E Holly Ave Ste 2, Sterling, VA 20164", "doctors": 1 }, "geometry": { "type": "Point", "coordinates": [ -77.4023701, 39.0003928 ] } },
{ "type": "Feature", "properties": { "ID": "l476", "address": "5200A Rolling Rd, Burke, VA 22015", "doctors": 2 }, "geometry": { "type": "Point", "coordinates": [ -77.256966, 38.8100741 ] } },
{ "type": "Feature", "properties": { "ID": "l479", "address": "1060 Brentwood Rd NE Ste B1, Washington, DC 20018", "doctors": 4 }, "geometry": { "type": "Point", "coordinates": [ -76.9928374, 38.9196258 ] } },
{ "type": "Feature", "properties": { "ID": "l480", "address": "5415 W Cedar Ln Ste 206b, Bethesda, MD 20814", "doctors": 4 }, "geometry": { "type": "Point", "coordinates": [ -77.1084665, 39.0049847 ] } },
{ "type": "Feature", "properties": { "ID": "l481", "address": "20036 Goshen Rd, Gaithersburg, MD 20879", "doctors": 3 }, "geometry": { "type": "Point", "coordinates": [ -77.1890311, 39.1865148 ] } },
{ "type": "Feature", "properties": { "ID": "l484", "address": "3241 M St SE, Washington, DC 20019", "doctors": 1 }, "geometry": { "type": "Point", "coordinates": [ -76.9592876, 38.8754451 ] } },
{ "type": "Feature", "properties": { "ID": "l485", "address": "10529 CRESTWOOD DR, MANASSAS, VA 20109", "doctors": 3 }, "geometry": { "type": "Point", "coordinates": [ -77.5116438, 38.778812 ] } },
{ "type": "Feature", "properties": { "ID": "l486", "address": "7574 Telegraph Rd, Alexandria, VA 22315", "doctors": 6 }, "geometry": { "type": "Point", "coordinates": [ -77.1410305, 38.753448 ] } },
{ "type": "Feature", "properties": { "ID": "l487", "address": "10110 Molecular Dr Ste 311, Rockville, MD 20850", "doctors": 2 }, "geometry": { "type": "Point", "coordinates": [ -77.2100902, 39.0920348 ] } },
{ "type": "Feature", "properties": { "ID": "l488", "address": "9514C Lee Hwy, Fairfax, VA 22031", "doctors": 1 }, "geometry": { "type": "Point", "coordinates": [ -77.2739155, 38.8678572 ] } },
{ "type": "Feature", "properties": { "ID": "l489", "address": "4405 EAST WEST HWY, BETHESDA, MD 20814", "doctors": 2 }, "geometry": { "type": "Point", "coordinates": [ -77.0904863, 38.9854274 ] } },
{ "type": "Feature", "properties": { "ID": "l490", "address": "11781 Lee Jackson Memorial Hwy Ste 550, Fairfax, VA 22033", "doctors": 1 }, "geometry": { "type": "Point", "coordinates": [ -77.3534879, 38.862543 ] } },
{ "type": "Feature", "properties": { "ID": "l491", "address": "14149 Robert Paris Ct Ste B, Chantilly, VA 20151", "doctors": 7 }, "geometry": { "type": "Point", "coordinates": [ -77.4365667, 38.8786313 ] } },
{ "type": "Feature", "properties": { "ID": "l492", "address": "956 Chandler Ct, Waldorf, MD 20602", "doctors": 6 }, "geometry": { "type": "Point", "coordinates": [ -76.9241332, 38.6109467 ] } },
{ "type": "Feature", "properties": { "ID": "l493", "address": "5216a Lyngate Ct, Burke, VA 22015", "doctors": 1 }, "geometry": { "type": "Point", "coordinates": [ -77.257416, 38.8090789 ] } },
{ "type": "Feature", "properties": { "ID": "l494", "address": "7431 Linton Hall Rd, Gainesville, VA 20155", "doctors": 3 }, "geometry": { "type": "Point", "coordinates": [ -77.6095434, 38.7945999 ] } },
{ "type": "Feature", "properties": { "ID": "l495", "address": "4000 Mitchellville Rd Ste B330, Bowie, MD 20716", "doctors": 4 }, "geometry": { "type": "Point", "coordinates": [ -76.7231012, 38.9456836 ] } },
{ "type": "Feature", "properties": { "ID": "l496", "address": "8722 FLOWER AVE, SILVER SPRING, MD 20901", "doctors": 1 }, "geometry": { "type": "Point", "coordinates": [ -77.0040636, 38.9989305 ] } },
{ "type": "Feature", "properties": { "ID": "l498", "address": "6230 Rolling Rd Ste E, Springfield, VA 22152", "doctors": 6 }, "geometry": { "type": "Point", "coordinates": [ -77.2353288, 38.7808424 ] } },
{ "type": "Feature", "properties": { "ID": "l500", "address": "7700 Arlington Blvd, Falls Church, VA 22042", "doctors": 6 }, "geometry": { "type": "Point", "coordinates": [ -77.2078432, 38.8668364 ] } },
{ "type": "Feature", "properties": { "ID": "l501", "address": "16220 Frederick Rd Ste 505, Gaithersburg, MD 20877", "doctors": 1 }, "geometry": { "type": "Point", "coordinates": [ -77.1773499, 39.1213279 ] } },
{ "type": "Feature", "properties": { "ID": "l502", "address": "104 Elden St Ste 10, Herndon, VA 20170", "doctors": 1 }, "geometry": { "type": "Point", "coordinates": [ -77.3664031, 38.9672435 ] } },
{ "type": "Feature", "properties": { "ID": "l503", "address": "6711 Whittier Ave Ste 102, Mclean, VA 22101", "doctors": 9 }, "geometry": { "type": "Point", "coordinates": [ -77.1753593, 38.931521 ] } },
{ "type": "Feature", "properties": { "ID": "l504", "address": "2311 M St NW Ste 305, Washington, DC 20037", "doctors": 2 }, "geometry": { "type": "Point", "coordinates": [ -77.0506134, 38.9055404 ] } },
{ "type": "Feature", "properties": { "ID": "l505", "address": "46161 Westlake Dr Ste 310, Sterling, VA 20165", "doctors": 6 }, "geometry": { "type": "Point", "coordinates": [ -77.4034479, 39.0354655 ] } },
{ "type": "Feature", "properties": { "ID": "l506", "address": "6134 Redwood Square Ctr, Centreville, VA 20121", "doctors": 2 }, "geometry": { "type": "Point", "coordinates": [ -77.4332286, 38.8298524 ] } },
{ "type": "Feature", "properties": { "ID": "l507", "address": "5010 Buckeystown Pike Ste 144, Frederick, MD 21704", "doctors": 4 }, "geometry": { "type": "Point", "coordinates": [ -77.4125503, 39.371534 ] } },
{ "type": "Feature", "properties": { "ID": "l508", "address": "4449 Mitchellville Rd, Bowie, MD 20716", "doctors": 1 }, "geometry": { "type": "Point", "coordinates": [ -76.7195378, 38.9498086 ] } },
{ "type": "Feature", "properties": { "ID": "l509", "address": "11800 Sunrise Valley Dr Ste 1137, Reston, VA 20191", "doctors": 2 }, "geometry": { "type": "Point", "coordinates": [ -77.355099, 38.9494711 ] } },
{ "type": "Feature", "properties": { "ID": "l510", "address": "8913 Woodyard Rd Unit B, Clinton, MD 20735", "doctors": 13 }, "geometry": { "type": "Point", "coordinates": [ -76.8879946, 38.7677195 ] } },
{ "type": "Feature", "properties": { "ID": "l511", "address": "14700 Bauer Dr, Rockville, MD 20853", "doctors": 1 }, "geometry": { "type": "Point", "coordinates": [ -77.1105146, 39.0964295 ] } },
{ "type": "Feature", "properties": { "ID": "l512", "address": "19501 Doctors Dr, Germantown, MD 20874", "doctors": 4 }, "geometry": { "type": "Point", "coordinates": [ -77.2688697, 39.1749775 ] } },
{ "type": "Feature", "properties": { "ID": "l513", "address": "1801 Rockville Pike Ste 101, Rockville, MD 20852", "doctors": 1 }, "geometry": { "type": "Point", "coordinates": [ -77.1230672, 39.0596141 ] } },
{ "type": "Feature", "properties": { "ID": "l514", "address": "1801 Robert Fulton Dr Ste 100, Reston, VA 20191", "doctors": 6 }, "geometry": { "type": "Point", "coordinates": [ -77.3245512, 38.9425595 ] } },
{ "type": "Feature", "properties": { "ID": "l515", "address": "17 Fort Evans Rd NE Ste C, Leesburg, VA 20176", "doctors": 4 }, "geometry": { "type": "Point", "coordinates": [ -77.54703, 39.1074274 ] } },
{ "type": "Feature", "properties": { "ID": "l516", "address": "105 N Virginia Ave Ste 103, Falls Church, VA 22046", "doctors": 4 }, "geometry": { "type": "Point", "coordinates": [ -77.1754933, 38.8857137 ] } },
{ "type": "Feature", "properties": { "ID": "l517", "address": "3000 Connecticut Ave NW Ste 8, Washington, DC 20008", "doctors": 1 }, "geometry": { "type": "Point", "coordinates": [ -77.0555654, 38.9298928 ] } },
{ "type": "Feature", "properties": { "ID": "l518", "address": "2600 Virginia Ave NW Ste 127, Washington, DC 20037", "doctors": 1 }, "geometry": { "type": "Point", "coordinates": [ -77.05552, 38.8996 ] } },
{ "type": "Feature", "properties": { "ID": "l519", "address": "1603 BERRY ROSE CT, FREDERICK, MD 21701", "doctors": 1 }, "geometry": { "type": "Point", "coordinates": [ -77.392382, 39.437075 ] } },
{ "type": "Feature", "properties": { "ID": "l521", "address": "2719 Washington Blvd, Arlington, VA 22201", "doctors": 9 }, "geometry": { "type": "Point", "coordinates": [ -77.0897445, 38.8802177 ] } },
{ "type": "Feature", "properties": { "ID": "l522", "address": "6124 River Rd, Bethesda, MD 20817", "doctors": 1 }, "geometry": { "type": "Point", "coordinates": [ -77.1243818, 38.9739873 ] } },
{ "type": "Feature", "properties": { "ID": "l523", "address": "8557 Sudley Rd, Manassas, VA 20110", "doctors": 2 }, "geometry": { "type": "Point", "coordinates": [ -77.492289, 38.7701957 ] } },
{ "type": "Feature", "properties": { "ID": "l524", "address": "2141 K St NW Ste 306, Washington, DC 20037", "doctors": 2 }, "geometry": { "type": "Point", "coordinates": [ -77.048012, 38.9028979 ] } },
{ "type": "Feature", "properties": { "ID": "l525", "address": "4391 RIDGEWOOD CENTER DR, WOODBRIDGE, VA 22192", "doctors": 2 }, "geometry": { "type": "Point", "coordinates": [ -77.3412007, 38.6739868 ] } },
{ "type": "Feature", "properties": { "ID": "l528", "address": "12701 Marblestone Dr Ste 180, Woodbridge, VA 22192", "doctors": 4 }, "geometry": { "type": "Point", "coordinates": [ -77.351869, 38.6779702 ] } },
{ "type": "Feature", "properties": { "ID": "l529", "address": "3930 Pender Dr Ste 220, Fairfax, VA 22030", "doctors": 7 }, "geometry": { "type": "Point", "coordinates": [ -77.3341662, 38.8604978 ] } },
{ "type": "Feature", "properties": { "ID": "l530", "address": "1712 I St NW Ste 906, Washington, DC 20006", "doctors": 12 }, "geometry": { "type": "Point", "coordinates": [ -77.0400618, 38.9010816 ] } },
{ "type": "Feature", "properties": { "ID": "l531", "address": "611 S Carlin Springs Rd Ste 408, Arlington, VA 22204", "doctors": 5 }, "geometry": { "type": "Point", "coordinates": [ -77.1280224, 38.8605082 ] } },
{ "type": "Feature", "properties": { "ID": "l532", "address": "1625 K St NW Ste Ll1, Washington, DC 20006", "doctors": 3 }, "geometry": { "type": "Point", "coordinates": [ -77.0373854, 38.9027458 ] } },
{ "type": "Feature", "properties": { "ID": "l533", "address": "12110 Monument Dr Ste A, Fairfax, VA 22033", "doctors": 3 }, "geometry": { "type": "Point", "coordinates": [ -77.366939, 38.8627991 ] } },
{ "type": "Feature", "properties": { "ID": "l535", "address": "7500 Hanover Pkwy, Greenbelt, MD 20770", "doctors": 2 }, "geometry": { "type": "Point", "coordinates": [ -76.8755642, 38.9926252 ] } },
{ "type": "Feature", "properties": { "ID": "l537", "address": "11868 Sunrise Valley Dr, Reston, VA 20191", "doctors": 1 }, "geometry": { "type": "Point", "coordinates": [ -77.3582127, 38.9468212 ] } },
{ "type": "Feature", "properties": { "ID": "l538", "address": "11721 Woodmore Rd Ste 170, Bowie, MD 20721", "doctors": 34 }, "geometry": { "type": "Point", "coordinates": [ -76.8019244, 38.9204953 ] } },
{ "type": "Feature", "properties": { "ID": "l539", "address": "23401 Frederick Rd, Clarksburg, MD 20871", "doctors": 3 }, "geometry": { "type": "Point", "coordinates": [ -77.2818421, 39.2409552 ] } },
{ "type": "Feature", "properties": { "ID": "l540", "address": "102 Elden St Ste 15, Herndon, VA 20170", "doctors": 2 }, "geometry": { "type": "Point", "coordinates": [ -77.36642, 38.966752 ] } },
{ "type": "Feature", "properties": { "ID": "l541", "address": "1800 K St NW Suite 1130, Washington, DC 20006", "doctors": 1 }, "geometry": { "type": "Point", "coordinates": [ -77.042063, 38.902094 ] } },
{ "type": "Feature", "properties": { "ID": "l542", "address": "1112 16th St NW Ste 340, Washington, DC 20036", "doctors": 2 }, "geometry": { "type": "Point", "coordinates": [ -77.0369714, 38.9042579 ] } },
{ "type": "Feature", "properties": { "ID": "l543", "address": "6060 Arlington Blvd, Falls Church, VA 22044", "doctors": 3 }, "geometry": { "type": "Point", "coordinates": [ -77.1405725, 38.8677857 ] } },
{ "type": "Feature", "properties": { "ID": "l544", "address": "1308 Sunny Side Ln, McLean, VA 22102", "doctors": 1 }, "geometry": { "type": "Point", "coordinates": [ -77.2488222, 38.9465121 ] } },
{ "type": "Feature", "properties": { "ID": "l545", "address": "1145 19th St NW Ste 502, Washington, DC 20036", "doctors": 6 }, "geometry": { "type": "Point", "coordinates": [ -77.0429251, 38.9050447 ] } },
{ "type": "Feature", "properties": { "ID": "l546", "address": "9001 Digges Rd Ste 208, Manassas, VA 20110", "doctors": 1 }, "geometry": { "type": "Point", "coordinates": [ -77.4870525, 38.7650336 ] } },
{ "type": "Feature", "properties": { "ID": "l547", "address": "7610 Pennsylvania Ave, District Heights, MD 20747", "doctors": 2 }, "geometry": { "type": "Point", "coordinates": [ -76.8746634, 38.8418106 ] } },
{ "type": "Feature", "properties": { "ID": "l548", "address": "3114 Georgia Ave NW, Washington, DC 20010", "doctors": 4 }, "geometry": { "type": "Point", "coordinates": [ -77.0236078, 38.9295241 ] } },
{ "type": "Feature", "properties": { "ID": "l549", "address": "3050 Crain Hwy Ste 303, Waldorf, MD 20601", "doctors": 1 }, "geometry": { "type": "Point", "coordinates": [ -76.9074775, 38.6286492 ] } },
{ "type": "Feature", "properties": { "ID": "l550", "address": "1003 Fourth Street, Laurel, MD 20707", "doctors": 5 }, "geometry": { "type": "Point", "coordinates": [ -76.8566234, 39.097387 ] } },
{ "type": "Feature", "properties": { "ID": "l551", "address": "8739 Plantation Ln, Manassas, VA 20110", "doctors": 2 }, "geometry": { "type": "Point", "coordinates": [ -77.482421, 38.766585 ] } },
{ "type": "Feature", "properties": { "ID": "l552", "address": "5113 Leesburg Pike Ste 811, Falls Church, VA 22041", "doctors": 19 }, "geometry": { "type": "Point", "coordinates": [ -77.1180594, 38.8434165 ] } },
{ "type": "Feature", "properties": { "ID": "l553", "address": "8901 WISCONSIN AVE, BETHESDA, MD 20814", "doctors": 11 }, "geometry": { "type": "Point", "coordinates": [ -77.091722, 38.997829 ] } },
{ "type": "Feature", "properties": { "ID": "l554", "address": "6829 Elm St Ste 320, McLean, VA 22101", "doctors": 1 }, "geometry": { "type": "Point", "coordinates": [ -77.1797447, 38.9355586 ] } },
{ "type": "Feature", "properties": { "ID": "l555", "address": "10230 New Hampshire Ave Ste 330, Silver Spring, MD 20903", "doctors": 3 }, "geometry": { "type": "Point", "coordinates": [ -76.9792788, 39.0231356 ] } },
{ "type": "Feature", "properties": { "ID": "l556", "address": "2155 Champlain St NW, Washington, DC 20009", "doctors": 4 }, "geometry": { "type": "Point", "coordinates": [ -77.040347, 38.9194216 ] } },
{ "type": "Feature", "properties": { "ID": "l557", "address": "2345 Martin Luther King Jr Ave SE, Washington, DC 20020", "doctors": 3 }, "geometry": { "type": "Point", "coordinates": [ -76.99232, 38.8630406 ] } },
{ "type": "Feature", "properties": { "ID": "l558", "address": "5055 Seminary Rd Ste 105, Alexandria, VA 22311", "doctors": 4 }, "geometry": { "type": "Point", "coordinates": [ -77.1130449, 38.8343192 ] } },
{ "type": "Feature", "properties": { "ID": "l559", "address": "11239 Lockwood Dr, Silver Spring, MD 20901", "doctors": 3 }, "geometry": { "type": "Point", "coordinates": [ -76.9916003, 39.0389385 ] } },
{ "type": "Feature", "properties": { "ID": "l560", "address": "9015 Woodyard Rd Ste 104, Clinton, MD 20735", "doctors": 4 }, "geometry": { "type": "Point", "coordinates": [ -76.8953688, 38.766649 ] } },
{ "type": "Feature", "properties": { "ID": "l561", "address": "12786 DOGWOOD HILLS LN, FAIRFAX, VA 22033", "doctors": 1 }, "geometry": { "type": "Point", "coordinates": [ -77.385694, 38.8738979 ] } },
{ "type": "Feature", "properties": { "ID": "l562", "address": "12011 Lee Jackson Memorial Hwy Ste 105, Fairfax, VA 22033", "doctors": 7 }, "geometry": { "type": "Point", "coordinates": [ -77.3610576, 38.8661305 ] } },
{ "type": "Feature", "properties": { "ID": "l563", "address": "2843 Hartland Rd Ste 200, Falls Church, VA 22043", "doctors": 4 }, "geometry": { "type": "Point", "coordinates": [ -77.221857, 38.876109 ] } },
{ "type": "Feature", "properties": { "ID": "l564", "address": "6328 Richmond Hwy Ste F, Alexandria, VA 22306", "doctors": 2 }, "geometry": { "type": "Point", "coordinates": [ -77.0802798, 38.7794101 ] } },
{ "type": "Feature", "properties": { "ID": "l565", "address": "1350 Connecticut Ave NW Ste 305, Washington, DC 20036", "doctors": 2 }, "geometry": { "type": "Point", "coordinates": [ -77.043037, 38.908311 ] } },
{ "type": "Feature", "properties": { "ID": "l566", "address": "2750 14th St NW, Washington, DC 20009", "doctors": 9 }, "geometry": { "type": "Point", "coordinates": [ -77.0326532, 38.9252777 ] } },
{ "type": "Feature", "properties": { "ID": "l567", "address": "7501 Epsilon Dr, Derwood, MD 20855", "doctors": 2 }, "geometry": { "type": "Point", "coordinates": [ -77.1537551, 39.1386675 ] } },
{ "type": "Feature", "properties": { "ID": "l569", "address": "823 BOOKER DR, CAPITOL HEIGHTS, MD 20743", "doctors": 1 }, "geometry": { "type": "Point", "coordinates": [ -76.8948628, 38.9011111 ] } },
{ "type": "Feature", "properties": { "ID": "l570", "address": "9500 Annapolis Rd Ste C6, Lanham, MD 20706", "doctors": 4 }, "geometry": { "type": "Point", "coordinates": [ -76.8400676, 38.9650948 ] } },
{ "type": "Feature", "properties": { "ID": "l571", "address": "8344 Traford Ln Ste C, Springfield, VA 22152", "doctors": 3 }, "geometry": { "type": "Point", "coordinates": [ -77.232804, 38.78207 ] } },
{ "type": "Feature", "properties": { "ID": "l572", "address": "43170 Southern Walk Plz Ste 116, Ashburn, VA 20148", "doctors": 3 }, "geometry": { "type": "Point", "coordinates": [ -77.5072221, 39.0085628 ] } },
{ "type": "Feature", "properties": { "ID": "l574", "address": "46175 Westlake Dr Ste 430, Sterling, VA 20165", "doctors": 1 }, "geometry": { "type": "Point", "coordinates": [ -77.4030558, 39.0342241 ] } },
{ "type": "Feature", "properties": { "ID": "l575", "address": "7857 Heritage Dr Ste 320, Annandale, VA 22003", "doctors": 1 }, "geometry": { "type": "Point", "coordinates": [ -77.2139603, 38.824886 ] } },
{ "type": "Feature", "properties": { "ID": "l576", "address": "14102 Sullyfield Cir Ste 500, Chantilly, VA 20151", "doctors": 5 }, "geometry": { "type": "Point", "coordinates": [ -77.4352039, 38.894183 ] } },
{ "type": "Feature", "properties": { "ID": "l577", "address": "4316 Saint Barnabas Rd Suite T1, Temple Hills, MD 20748", "doctors": 1 }, "geometry": { "type": "Point", "coordinates": [ -76.9416089, 38.8293664 ] } },
{ "type": "Feature", "properties": { "ID": "l580", "address": "10301 Georgia Ave Ste 202, Silver Spring, MD 20902", "doctors": 1 }, "geometry": { "type": "Point", "coordinates": [ -77.0449676, 39.0240473 ] } },
{ "type": "Feature", "properties": { "ID": "l581", "address": "4303 16th St NW, Washington, DC 20011", "doctors": 1 }, "geometry": { "type": "Point", "coordinates": [ -77.0360495, 38.9432082 ] } },
{ "type": "Feature", "properties": { "ID": "l582", "address": "8500 Executive Park Ave Ste 408, Fairfax, VA 22031", "doctors": 1 }, "geometry": { "type": "Point", "coordinates": [ -77.2378659, 38.8677325 ] } },
{ "type": "Feature", "properties": { "ID": "l583", "address": "8 Russell Ave Ste 105, Gaithersburg, MD 20877", "doctors": 10 }, "geometry": { "type": "Point", "coordinates": [ -77.1970256, 39.1429692 ] } },
{ "type": "Feature", "properties": { "ID": "l584", "address": "7015 Old Keene Mill Rd Ste 101, Springfield, VA 22150", "doctors": 2 }, "geometry": { "type": "Point", "coordinates": [ -77.1860606, 38.7787134 ] } },